[{"id":"10057921","type":0,"brand":"shell","name":"SOKOLNIKI RIGHT","lat":49.788576,"lng":23.944889,"country_code":"UA","address":"LVOV CITY, SOKOLNIK VILLAGE, RIGHT","city":"Lvov","state":"","postcode":"81130","telephone":"+380 67 224 3048","country":"Ukraine","amenities":["standard_toilet","food_offerings","air_and_water","loyalty_cards","credit_card","fuel_card","credit_card_general","wifi","full_service","shell_card","twenty_four_hour","others","shop","loyalty_program","other_loyalty_cards","motorway_service","manned"],"inactive":false,"distance":0.0004505365,"driving_distance":null,"driving_duration":null,"website_url":"https://find.shell.com/ua/fuel/10057921-sokolniki-right","open_status":"twenty_four_hour","next_open_status_change":null,"tz_offset":10800,"fuels":["premium_gasoline","premium_diesel","midgrade_gasoline","low_octane_gasoline","shell_regular_diesel"],"next_forecourt_open_status_change":null,"next_shop_open_status_change":null,"forecourt_open_status":"twenty_four_hour","shop_open_status":"unknown"},{"id":"10071463","type":0,"brand":"shell","name":"LVOV, SHEVCHENKA","lat":49.855885,"lng":23.981401,"country_code":"UA","address":"LVOV CITY, ST. T. SHEVCHENKA, 186B","city":"Lvov","state":"","postcode":"79039","telephone":"+380 67 214 4651","country":"Ukraine","amenities":["standard_toilet","food_offerings","air_and_water","loyalty_cards","credit_card","fuel_card","credit_card_general","wifi","full_service","shell_card","twenty_four_hour","others","shop","loyalty_program","other_loyalty_cards","manned"],"inactive":false,"distance":7.92909296935,"driving_distance":null,"driving_duration":null,"website_url":"https://find.shell.com/ua/fuel/10071463-lvov-shevchenka","open_status":"twenty_four_hour","next_open_status_change":null,"tz_offset":10800,"fuels":["premium_gasoline","premium_diesel","midgrade_gasoline","low_octane_gasoline","shell_regular_diesel"],"next_forecourt_open_status_change":null,"next_shop_open_status_change":null,"forecourt_open_status":"twenty_four_hour","shop_open_status":"unknown"},{"id":"10087106","type":0,"brand":"shell","name":"PASIKY-ZUBRITSKIE","lat":49.779356,"lng":24.093422,"country_code":"UA","address":"LVIV REGION, DOROZHNA, 56","city":"Pasiky-Zybritskie","state":"","postcode":"81137","telephone":"+380 67 214 4656","country":"Ukraine","amenities":["standard_toilet","food_offerings","air_and_water","loyalty_cards","credit_card","fuel_card","credit_card_general","wifi","full_service","shell_card","twenty_four_hour","others","shop","loyalty_program","other_loyalty_cards","manned"],"inactive":false,"distance":10.71313548972,"driving_distance":null,"driving_duration":null,"website_url":"https://find.shell.com/ua/fuel/10087106-pasiky-zubritskie","open_status":"twenty_four_hour","next_open_status_change":null,"tz_offset":10800,"fuels":["premium_gasoline","premium_diesel","midgrade_gasoline","low_octane_gasoline","shell_regular_diesel","autogas_lpg"],"next_forecourt_open_status_change":null,"next_shop_open_status_change":null,"forecourt_open_status":"twenty_four_hour","shop_open_status":"unknown"},{"id":"10061042","type":0,"brand":"shell","name":"DEREVACH","lat":49.655695,"lng":24.000585,"country_code":"UA","address":"LVIV REGION, STRYISKA STR., 55","city":"Lvov","state":"","postcode":"81164","telephone":"+380 67 238 0236","country":"Ukraine","amenities":["standard_toilet","food_offerings","air_and_water","loyalty_cards","credit_card","fuel_card","credit_card_general","wifi","full_service","shell_card","twenty_four_hour","others","shop","loyalty_program","other_loyalty_cards","motorway_service","manned"],"inactive":false,"distance":15.30897870761,"driving_distance":null,"driving_duration":null,"website_url":"https://find.shell.com/ua/fuel/10061042-derevach","open_status":"twenty_four_hour","next_open_status_change":null,"tz_offset":10800,"fuels":["premium_gasoline","premium_diesel","midgrade_gasoline","low_octane_gasoline","shell_regular_diesel"],"next_forecourt_open_status_change":null,"next_shop_open_status_change":null,"forecourt_open_status":"twenty_four_hour","shop_open_status":"unknown"},{"id":"10058174","type":0,"brand":"shell","name":"GRIBOVICHI","lat":49.908296,"lng":24.055192,"country_code":"UA","address":"LVIV DISTRICT, ST. LVIVSKA, 6","city":"Veliki Gribovichi","state":"","postcode":"80380","telephone":"+380 67 214 4624","country":"Ukraine","amenities":["standard_toilet","food_offerings","air_and_water","loyalty_cards","credit_card","fuel_card","credit_card_general","wifi","full_service","shell_card","twenty_four_hour","others","shop","loyalty_program","other_loyalty_cards","manned"],"inactive":false,"distance":15.48390468941,"driving_distance":null,"driving_duration":null,"website_url":"https://find.shell.com/ua/fuel/10058174-gribovichi","open_status":"twenty_four_hour","next_open_status_change":null,"tz_offset":10800,"fuels":["premium_gasoline","premium_diesel","midgrade_gasoline","low_octane_gasoline","shell_regular_diesel"],"next_forecourt_open_status_change":null,"next_shop_open_status_change":null,"forecourt_open_status":"twenty_four_hour","shop_open_status":"unknown"},{"id":"10071465","type":0,"brand":"shell","name":"RAKOVETS","lat":49.653313,"lng":24.001357,"country_code":"UA","address":"KYIV-CHOP ROAD, 560+380 KM (LEFT)","city":"Rakovets","state":"","postcode":"81164","telephone":"+380 67 214 4639","country":"Ukraine","amenities":["standard_toilet","food_offerings","air_and_water","loyalty_cards","credit_card","fuel_card","credit_card_general","wifi","full_service","shell_card","twenty_four_hour","others","shop","loyalty_program","other_loyalty_cards","motorway_service","manned"],"inactive":false,"distance":15.57917468854,"driving_distance":null,"driving_duration":null,"website_url":"https://find.shell.com/ua/fuel/10071465-rakovets","open_status":"twenty_four_hour","next_open_status_change":null,"tz_offset":10800,"fuels":["premium_gasoline","premium_diesel","midgrade_gasoline","shell_regular_diesel","autogas_lpg"],"next_forecourt_open_status_change":null,"next_shop_open_status_change":null,"forecourt_open_status":"twenty_four_hour","shop_open_status":"unknown"},{"id":"10061041","type":0,"brand":"shell","name":"MUROVANE","lat":49.89155,"lng":24.103958,"country_code":"UA","address":"LVIV REG, MUROVANE VILLLAGE","city":"Lvov","state":"","postcode":"81121","telephone":"+380 67 320 5563","country":"Ukraine","amenities":["standard_toilet","food_offerings","air_and_water","loyalty_cards","credit_card","fuel_card","credit_card_general","wifi","full_service","shell_card","twenty_four_hour","others","shop","loyalty_program","other_loyalty_cards","motorway_service","manned"],"inactive":false,"distance":16.16228391859,"driving_distance":null,"driving_duration":null,"website_url":"https://find.shell.com/ua/fuel/10061041-murovane","open_status":"twenty_four_hour","next_open_status_change":null,"tz_offset":10800,"fuels":["premium_gasoline","premium_diesel","midgrade_gasoline","low_octane_gasoline","shell_regular_diesel","autogas_lpg"],"next_forecourt_open_status_change":null,"next_shop_open_status_change":null,"forecourt_open_status":"twenty_four_hour","shop_open_status":"unknown"},{"id":"10057923","type":0,"brand":"shell","name":"KAMYANOPOL","lat":49.86606,"lng":24.168265,"country_code":"UA","address":"LVOV CITY, CIRCLE ROAD","city":"Lvov","state":"","postcode":"79001","telephone":"+380 67 320 6906","country":"Ukraine","amenities":["standard_toilet","food_offerings","air_and_water","loyalty_cards","credit_card","fuel_card","credit_card_general","wifi","full_service","shell_card","twenty_four_hour","others","shop","loyalty_program","other_loyalty_cards","motorway_service","manned"],"inactive":false,"distance":18.19230273532,"driving_distance":null,"driving_duration":null,"website_url":"https://find.shell.com/ua/fuel/10057923-kamyanopol","open_status":"twenty_four_hour","next_open_status_change":null,"tz_offset":10800,"fuels":["premium_gasoline","premium_diesel","midgrade_gasoline","low_octane_gasoline","shell_regular_diesel","autogas_lpg"],"next_forecourt_open_status_change":null,"next_shop_open_status_change":null,"forecourt_open_status":"twenty_four_hour","shop_open_status":"unknown"},{"id":"10078499","type":0,"brand":"shell","name":"CHIZHIKIV","lat":49.796171,"lng":24.268246,"country_code":"UA","address":"LVIV REGION, OSTRIVSKA STR., 1A","city":"Chizhikiv","state":"","postcode":"81145","telephone":"+380 67 320 5484","country":"Ukraine","amenities":["standard_toilet","food_offerings","air_and_water","loyalty_cards","credit_card","fuel_card","credit_card_general","wifi","full_service","shell_card","twenty_four_hour","others","shop","loyalty_program","other_loyalty_cards","manned"],"inactive":false,"distance":23.22679466481,"driving_distance":null,"driving_duration":null,"website_url":"https://find.shell.com/ua/fuel/10078499-chizhikiv","open_status":"twenty_four_hour","next_open_status_change":null,"tz_offset":10800,"fuels":["premium_gasoline","premium_diesel","midgrade_gasoline","low_octane_gasoline","shell_regular_diesel"],"next_forecourt_open_status_change":null,"next_shop_open_status_change":null,"forecourt_open_status":"twenty_four_hour","shop_open_status":"unknown"},{"id":"10090031","type":0,"brand":"shell","name":"KRAKOVETS","lat":49.947309,"lng":23.173804,"country_code":"UA","address":"HW LVIV-KRAKIVETS 65 km 980 m","city":"Krakovets","state":"","postcode":"81033","telephone":"+380 67 467 1368","country":"Ukraine","amenities":["standard_toilet","food_offerings","air_and_water","loyalty_cards","credit_card","fuel_card","credit_card_general","wifi","full_service","clubsmart_card","shell_card","twenty_four_hour","others","shop","loyalty_program","other_loyalty_cards","manned"],"inactive":false,"distance":58.01416008993,"driving_distance":null,"driving_duration":null,"website_url":"https://find.shell.com/ua/fuel/10090031-krakovets","open_status":"twenty_four_hour","next_open_status_change":null,"tz_offset":10800,"fuels":["premium_gasoline","premium_diesel","midgrade_gasoline","low_octane_gasoline","shell_regular_diesel","autogas_lpg","truck_diesel"],"next_forecourt_open_status_change":null,"next_shop_open_status_change":null,"forecourt_open_status":"twenty_four_hour","shop_open_status":"unknown"},{"id":"12852850","type":2,"brand":"shell","name":"8336 ARTEL OLESZYCE","lat":50.16703,"lng":23.049101,"country_code":"PL","address":"JOZEFA SAPIEHY 11","city":"OLESZYCE","state":"Woj. podkarpackie","postcode":"37-630","telephone":"+48 504 803 343","country":"Poland","amenities":["standard_toilet","carwash","disabled_facilities","hgv_lane","food_offerings","air_and_water","loyalty_cards","cafe","credit_card","fuel_card","vacuum","parking_lanes","clubsmart_card","fleet_card_dkv","fleet_card_uta","fleet_card_esso","credit_card_visa","credit_card_mastercard","hot_food","euroshell_card","twenty_four_hour","jet","shop","deli_by_shell","adblue_pack","manned"],"inactive":false,"distance":76.64142681643,"driving_distance":null,"driving_duration":null,"website_url":"https://find.shell.com/pl/fuel/12852850-8336-artel-oleszyce","open_status":"twenty_four_hour","next_open_status_change":null,"tz_offset":7200,"fuels":["premium_gasoline","premium_diesel","fuelsave_midgrade_gasoline","fuelsave_regular_diesel","autogas_lpg"],"next_forecourt_open_status_change":null,"next_shop_open_status_change":null,"forecourt_open_status":"twenty_four_hour","shop_open_status":"twenty_four_hour"},{"id":"10057910","type":0,"brand":"shell","name":"BUGAJOVKA","lat":50.154568,"lng":25.243783,"country_code":"UA","address":"Radivilov Dst, Kyivska, 10","city":"Bugayovka","state":"","postcode":"35561","telephone":"+380 67 224 2693","country":"Ukraine","amenities":["standard_toilet","food_offerings","air_and_water","loyalty_cards","credit_card","fuel_card","credit_card_general","wifi","full_service","shell_card","twenty_four_hour","others","shop","loyalty_program","other_loyalty_cards","motorway_service","manned"],"inactive":false,"distance":101.41455816928,"driving_distance":null,"driving_duration":null,"website_url":"https://find.shell.com/ua/fuel/10057910-bugajovka","open_status":"twenty_four_hour","next_open_status_change":null,"tz_offset":10800,"fuels":["premium_gasoline","premium_diesel","midgrade_gasoline","shell_regular_diesel","electric_charging_other"],"next_forecourt_open_status_change":null,"next_shop_open_status_change":null,"forecourt_open_status":"twenty_four_hour","shop_open_status":"unknown"},{"id":"10057909","type":0,"brand":"shell","name":"MIKHAJLOVKA","lat":50.164001,"lng":25.369915,"country_code":"UA","address":"Radivilov Dst,  St. Kyivska, 2A","city":"Mikhaylovka","state":"","postcode":"35544","telephone":"+380 67 219 0899","country":"Ukraine","amenities":["standard_toilet","food_offerings","air_and_water","loyalty_cards","credit_card","fuel_card","credit_card_general","wifi","full_service","shell_card","twenty_four_hour","others","shop","loyalty_program","other_loyalty_cards","motorway_service","manned"],"inactive":false,"distance":110.12030787079,"driving_distance":null,"driving_duration":null,"website_url":"https://find.shell.com/ua/fuel/10057909-mikhajlovka","open_status":"twenty_four_hour","next_open_status_change":null,"tz_offset":10800,"fuels":["premium_gasoline","premium_diesel","midgrade_gasoline","shell_regular_diesel"],"next_forecourt_open_status_change":null,"next_shop_open_status_change":null,"forecourt_open_status":"twenty_four_hour","shop_open_status":"unknown"},{"id":"10054684","type":2,"brand":"shell","name":"1504 ZAMOSC JP HETMA.","lat":50.710175,"lng":23.285244,"country_code":"PL","address":"JANA PAWLA II 6A","city":"ZAMOSC","state":"Woj. lubelskie","postcode":"22-400","telephone":"+48 514 991 295","country":"Poland","amenities":["standard_toilet","disabled_facilities","mobile_payment","hgv_lane","high_speed_diesel_pump","food_offerings","air_and_water","loyalty_cards","cafe","bottled_gas","credit_card","fuel_card","credit_card_general","wifi","parking_lanes","full_service","clubsmart_card","fleet_card_general","fleet_card_dkv","fleet_card_uta","fleet_card_esso","snack_food","costa_express","euroshell_card","shop","deli_by_shell","adblue_pack","go_plus","paycell","shell_cafe","manned"],"inactive":false,"distance":112.69929618263,"driving_distance":null,"driving_duration":null,"website_url":"https://find.shell.com/pl/fuel/10054684-1504-zamosc-jp-hetma","open_status":"unknown","next_open_status_change":null,"tz_offset":7200,"fuels":["premium_gasoline","premium_diesel","fuelsave_midgrade_gasoline","fuelsave_regular_diesel","autogas_lpg","super_premium_gasoline","truck_diesel"],"next_forecourt_open_status_change":null,"next_shop_open_status_change":null,"forecourt_open_status":"unknown","shop_open_status":"unknown"},{"id":"12717627","type":0,"brand":"shell","name":"8335  OLSZANICA. GRANICA.","lat":49.472153,"lng":22.426785,"country_code":"PL","address":"OLSZANICA 5A","city":"OLSZANICA","state":"Woj. podkarpackie","postcode":"38-722","telephone":"+48 13 461 75 03","country":"Poland","amenities":["standard_toilet","carwash","high_speed_diesel_pump","food_offerings","air_and_water","loyalty_cards","cafe","credit_card","fuel_card","credit_card_general","wifi","parking_lanes","full_service","clubsmart_card","fleet_card_dkv","fleet_card_uta","fleet_card_esso","snack_food","hot_food","euroshell_card","manual","sandwich","shop","deli_by_shell","adblue_pack","go_plus","manned"],"inactive":false,"distance":114.85767118815,"driving_distance":null,"driving_duration":null,"website_url":"https://find.shell.com/pl/fuel/12717627-8335-olszanica-granica","open_status":"closed","next_open_status_change":"2022-06-22T04:30:00.537Z","tz_offset":7200,"fuels":["premium_gasoline","premium_diesel","fuelsave_midgrade_gasoline","fuelsave_regular_diesel","autogas_lpg"],"next_forecourt_open_status_change":"2022-06-22T04:30:00.537Z","next_shop_open_status_change":null,"forecourt_open_status":"closed","shop_open_status":"unknown"},{"id":"10090713","type":0,"brand":"shell","name":"IVANO-FRNKOVSK","lat":48.848031,"lng":24.705676,"country_code":"UA","address":"NADVORYANSKAYA STR., 86","city":"Cherneev","state":"","postcode":"76002","telephone":"+380 67 214 4658","country":"Ukraine","amenities":["standard_toilet","food_offerings","air_and_water","loyalty_cards","credit_card","fuel_card","credit_card_general","wifi","full_service","shell_card","twenty_four_hour","others","shop","loyalty_program","other_loyalty_cards","manned"],"inactive":false,"distance":118.23033805696,"driving_distance":null,"driving_duration":null,"website_url":"https://find.shell.com/ua/fuel/10090713-ivano-frnkovsk","open_status":"twenty_four_hour","next_open_status_change":null,"tz_offset":10800,"fuels":["premium_gasoline","premium_diesel","midgrade_gasoline","low_octane_gasoline","shell_regular_diesel","autogas_lpg","truck_diesel"],"next_forecourt_open_status_change":null,"next_shop_open_status_change":null,"forecourt_open_status":"twenty_four_hour","shop_open_status":"unknown"},{"id":"10078500","type":0,"brand":"shell","name":"BUDNOGO","lat":49.5441,"lng":25.550567,"country_code":"UA","address":"S. BUDNOGO STR., 36A","city":"Ternopil","state":"","postcode":"46018","telephone":"+380 67 214 5691","country":"Ukraine","amenities":["standard_toilet","food_offerings","air_and_water","loyalty_cards","credit_card","fuel_card","credit_card_general","wifi","full_service","shell_card","twenty_four_hour","others","shop","loyalty_program","other_loyalty_cards","manned"],"inactive":false,"distance":118.7119476788,"driving_distance":null,"driving_duration":null,"website_url":"https://find.shell.com/ua/fuel/10078500-budnogo","open_status":"twenty_four_hour","next_open_status_change":null,"tz_offset":10800,"fuels":["premium_gasoline","premium_diesel","midgrade_gasoline","shell_regular_diesel","autogas_lpg"],"next_forecourt_open_status_change":null,"next_shop_open_status_change":null,"forecourt_open_status":"twenty_four_hour","shop_open_status":"unknown"},{"id":"10034773","type":2,"brand":"shell","name":"1502 BILGORAJ.","lat":50.516391,"lng":22.716365,"country_code":"PL","address":"TARNOGRODZKA 49","city":"BILGORAJ","state":"Woj. lubelskie","postcode":"23-400","telephone":"+48 511 793 189","country":"Poland","amenities":["standard_toilet","mobile_payment","hgv_lane","high_speed_diesel_pump","food_offerings","bakery_shop","air_and_water","loyalty_cards","cafe","bottled_gas","credit_card","fuel_card","credit_card_general","wifi","parking_lanes","full_service","clubsmart_card","fleet_card_general","fleet_card_dkv","fleet_card_uta","fleet_card_esso","snack_food","costa_express","euroshell_card","twenty_four_hour","restaurant","shop","truck_parking","deli_by_shell","adblue_pack","go_plus","paycell","shell_cafe","manned"],"inactive":false,"distance":119.20674324854,"driving_distance":null,"driving_duration":null,"website_url":"https://find.shell.com/pl/fuel/10034773-1502-bilgoraj","open_status":"twenty_four_hour","next_open_status_change":null,"tz_offset":7200,"fuels":["premium_gasoline","premium_diesel","fuelsave_midgrade_gasoline","fuelsave_regular_diesel","autogas_lpg","super_premium_gasoline","truck_diesel"],"next_forecourt_open_status_change":null,"next_shop_open_status_change":null,"forecourt_open_status":"twenty_four_hour","shop_open_status":"unknown"},{"id":"10090991","type":0,"brand":"shell","name":"TERNOPІL' 2","lat":49.526205,"lng":25.604464,"country_code":"UA","address":"STR. MYKULYNETSKA, 46","city":"Ternopil","state":"","postcode":"46000","telephone":"+380 67 214 5963","country":"Ukraine","amenities":["standard_toilet","food_offerings","air_and_water","loyalty_cards","credit_card","fuel_card","credit_card_general","wifi","full_service","shell_card","twenty_four_hour","others","shop","loyalty_program","other_loyalty_cards","manned"],"inactive":false,"distance":122.9689958083,"driving_distance":null,"driving_duration":null,"website_url":"https://find.shell.com/ua/fuel/10090991-ternop-l-2","open_status":"twenty_four_hour","next_open_status_change":null,"tz_offset":10800,"fuels":["premium_gasoline","premium_diesel","midgrade_gasoline","low_octane_gasoline","shell_regular_diesel","autogas_lpg"],"next_forecourt_open_status_change":null,"next_shop_open_status_change":null,"forecourt_open_status":"twenty_four_hour","shop_open_status":"unknown"},{"id":"10053931","type":2,"brand":"shell","name":"3205 LUBELSKA RZESZ","lat":50.050883,"lng":22.002525,"country_code":"PL","address":"LUBELSKA 4A","city":"RZESZOW","state":"Woj. podkarpackie","postcode":"35-241","telephone":"+48 511 812 237","country":"Poland","amenities":["standard_toilet","disabled_facilities","mobile_payment","hgv_lane","high_speed_diesel_pump","food_offerings","air_and_water","loyalty_cards","cafe","credit_card","fuel_card","credit_card_general","wifi","parking_lanes","fleet_card_general","fleet_card_dkv","fleet_card_uta","fleet_card_esso","snack_food","costa_express","euroshell_card","shop","unmanned","deli_by_shell","adblue_pack","loyalty_program","go_plus","paycell","other_loyalty_cards","shell_cafe"],"inactive":false,"distance":142.08320353893,"driving_distance":null,"driving_duration":null,"website_url":"https://find.shell.com/pl/fuel/10053931-3205-lubelska-rzesz","open_status":"closed","next_open_status_change":"2022-06-22T04:00:00.542Z","tz_offset":7200,"fuels":["premium_gasoline","premium_diesel","fuelsave_midgrade_gasoline","fuelsave_regular_diesel","autogas_lpg","super_premium_gasoline","truck_diesel"],"next_forecourt_open_status_change":"2022-06-22T04:00:00.543Z","next_shop_open_status_change":null,"forecourt_open_status":"closed","shop_open_status":"unknown"},{"id":"10034817","type":2,"brand":"shell","name":"3201 HETMANSKA RZESZ.","lat":50.020622,"lng":21.993672,"country_code":"PL","address":"HETMANSKA 46","city":"RZESZOW","state":"Woj. podkarpackie","postcode":"35-078","telephone":"+48 511 812 237","country":"Poland","amenities":["standard_toilet","mobile_payment","hgv_lane","high_speed_diesel_pump","food_offerings","air_and_water","loyalty_cards","cafe","bottled_gas","credit_card","fuel_card","credit_card_general","wifi","vacuum","parking_lanes","full_service","clubsmart_card","fleet_card_general","fleet_card_dkv","fleet_card_uta","fleet_card_esso","snack_food","costa_express","euroshell_card","twenty_four_hour","shop","truck_parking","deli_by_shell","adblue_pack","loyalty_program","go_plus","paycell","manned"],"inactive":false,"distance":142.09722952336,"driving_distance":null,"driving_duration":null,"website_url":"https://find.shell.com/pl/fuel/10034817-3201-hetmanska-rzesz","open_status":"twenty_four_hour","next_open_status_change":null,"tz_offset":7200,"fuels":["premium_gasoline","premium_diesel","fuelsave_midgrade_gasoline","fuelsave_regular_diesel","autogas_lpg","super_premium_gasoline","truck_diesel"],"next_forecourt_open_status_change":null,"next_shop_open_status_change":null,"forecourt_open_status":"twenty_four_hour","shop_open_status":"unknown"},{"id":"10034819","type":0,"brand":"shell","name":"3203 PZM AWAL RZESZ.","lat":50.042635,"lng":21.990458,"country_code":"PL","address":"KRAKOWSKA 4B","city":"RZESZOW","state":"Woj. podkarpackie","postcode":"35-210","telephone":"+48 511 813 253","country":"Poland","amenities":["standard_toilet","disabled_facilities","mobile_payment","food_offerings","air_and_water","loyalty_cards","cafe","bottled_gas","credit_card","fuel_card","credit_card_general","parking_lanes","full_service","clubsmart_card","fleet_card_general","fleet_card_dkv","fleet_card_uta","snack_food","costa_express","euroshell_card","twenty_four_hour","shop","deli_by_shell","adblue_pack","go_plus","paycell","manned"],"inactive":false,"distance":142.75620362009,"driving_distance":null,"driving_duration":null,"website_url":"https://find.shell.com/pl/fuel/10034819-3203-pzm-awal-rzesz","open_status":"twenty_four_hour","next_open_status_change":null,"tz_offset":7200,"fuels":["premium_gasoline","premium_diesel","fuelsave_midgrade_gasoline","fuelsave_regular_diesel","autogas_lpg","super_premium_gasoline"],"next_forecourt_open_status_change":null,"next_shop_open_status_change":null,"forecourt_open_status":"twenty_four_hour","shop_open_status":"unknown"},{"id":"10034818","type":0,"brand":"shell","name":"3202 KRAKOWSKA RZESZ.","lat":50.052232,"lng":21.971627,"country_code":"PL","address":"KRAKOWSKA 28","city":"RZESZOW","state":"Woj. podkarpackie","postcode":"35-111","telephone":"+48 571 303 182","country":"Poland","amenities":["atm","atm_out","standard_toilet","carwash","disabled_facilities","mobile_payment","high_speed_diesel_pump","food_offerings","air_and_water","loyalty_cards","cafe","bottled_gas","credit_card","fuel_card","credit_card_general","wifi","vacuum","parking_lanes","full_service","clubsmart_card","fleet_card_general","fleet_card_dkv","fleet_card_uta","fleet_card_esso","snack_food","costa_express","euroshell_card","twenty_four_hour","rollover","shop","deli_by_shell","adblue_pack","go_plus","paycell","shell_cafe","manned"],"inactive":false,"distance":144.27718979636,"driving_distance":null,"driving_duration":null,"website_url":"https://find.shell.com/pl/fuel/10034818-3202-krakowska-rzesz","open_status":"twenty_four_hour","next_open_status_change":null,"tz_offset":7200,"fuels":["premium_gasoline","premium_diesel","fuelsave_midgrade_gasoline","fuelsave_regular_diesel","autogas_lpg","super_premium_gasoline","truck_diesel"],"next_forecourt_open_status_change":null,"next_shop_open_status_change":null,"forecourt_open_status":"twenty_four_hour","shop_open_status":"unknown"},{"id":"10089596","type":0,"brand":"shell","name":"LUTSK","lat":50.744209,"lng":25.385671,"country_code":"UA","address":"RIVNENSKA STR., 98","city":"Lutsk","state":"","postcode":"43020","telephone":"+380 67 214 4855","country":"Ukraine","amenities":["atm","atm_in","standard_toilet","disabled_facilities","food_offerings","air_and_water","loyalty_cards","credit_card","fuel_card","credit_card_general","wifi","full_service","shell_card","twenty_four_hour","others","shop","loyalty_program","other_loyalty_cards","manned"],"inactive":false,"distance":147.57097207267,"driving_distance":null,"driving_duration":null,"website_url":"https://find.shell.com/ua/fuel/10089596-lutsk","open_status":"twenty_four_hour","next_open_status_change":null,"tz_offset":10800,"fuels":["premium_gasoline","premium_diesel","midgrade_gasoline","shell_regular_diesel","autogas_lpg"],"next_forecourt_open_status_change":null,"next_shop_open_status_change":null,"forecourt_open_status":"twenty_four_hour","shop_open_status":"unknown"},{"id":"12017316","type":2,"brand":"shell","name":"1418 CHELM JORDANA","lat":51.133885,"lng":23.463698,"country_code":"PL","address":"JORDANA 25","city":"CHELM","state":"Woj. lubelskie","postcode":"22-100","telephone":"+48 571 303 129","country":"Poland","amenities":["standard_toilet","disabled_facilities","mobile_payment","hgv_lane","high_speed_diesel_pump","food_offerings","air_and_water","loyalty_cards","cafe","bottled_gas","credit_card","fuel_card","credit_card_general","wifi","parking_lanes","full_service","fleet_card_general","fleet_card_dkv","fleet_card_uta","snack_food","euroshell_card","shop","deli_by_shell","adblue_pack","loyalty_program","go_plus","paycell","other_loyalty_cards","shell_cafe","manned"],"inactive":false,"distance":153.41931734229,"driving_distance":null,"driving_duration":null,"website_url":"https://find.shell.com/pl/fuel/12017316-1418-chelm-jordana","open_status":"closed","next_open_status_change":"2022-06-22T04:00:00.548Z","tz_offset":7200,"fuels":["premium_gasoline","premium_diesel","fuelsave_midgrade_gasoline","fuelsave_regular_diesel","autogas_lpg","super_premium_gasoline","truck_diesel"],"next_forecourt_open_status_change":"2022-06-22T04:00:00.548Z","next_shop_open_status_change":null,"forecourt_open_status":"closed","shop_open_status":"unknown"},{"id":"10058173","type":0,"brand":"shell","name":"LUBOMIL","lat":51.204898,"lng":23.918262,"country_code":"UA","address":"Volyn, Kyiv-Yagodyn HW, 497 km 300m","city":"Lubomil","state":"","postcode":"44300","telephone":"+380 67 214 4771","country":"Ukraine","amenities":["standard_toilet","food_offerings","air_and_water","loyalty_cards","credit_card","fuel_card","credit_card_general","wifi","full_service","shell_card","twenty_four_hour","others","shop","loyalty_program","other_loyalty_cards","manned"],"inactive":false,"distance":157.4988524016,"driving_distance":null,"driving_duration":null,"website_url":"https://find.shell.com/ua/fuel/10058173-lubomil","open_status":"twenty_four_hour","next_open_status_change":null,"tz_offset":10800,"fuels":["premium_gasoline","premium_diesel","midgrade_gasoline","shell_regular_diesel"],"next_forecourt_open_status_change":null,"next_shop_open_status_change":null,"forecourt_open_status":"twenty_four_hour","shop_open_status":"unknown"},{"id":"12795621","type":2,"brand":"shell","name":"8332 ARTOS WIDEŁKA","lat":50.20783,"lng":21.827072,"country_code":"PL","address":"KUPNO 497","city":"WIDEŁKA","state":"Woj. podkarpackie","postcode":"36-145","telephone":"+48 660 759 720","country":"Poland","amenities":["standard_toilet","disabled_facilities","hgv_lane","food_offerings","air_and_water","loyalty_cards","cafe","credit_card","fuel_card","credit_card_general","wifi","vacuum","parking_lanes","full_service","clubsmart_card","fleet_card_dkv","fleet_card_uta","fleet_card_esso","snack_food","costa_express","hot_food","euroshell_card","twenty_four_hour","shop","truck_parking","partner_card","adblue_pack","loyalty_program","go_plus","manned"],"inactive":false,"distance":158.38562657206,"driving_distance":null,"driving_duration":null,"website_url":"https://find.shell.com/pl/fuel/12795621-8332-artos-widelka","open_status":"twenty_four_hour","next_open_status_change":null,"tz_offset":7200,"fuels":["premium_gasoline","premium_diesel","fuelsave_midgrade_gasoline","fuelsave_regular_diesel","autogas_lpg"],"next_forecourt_open_status_change":null,"next_shop_open_status_change":null,"forecourt_open_status":"twenty_four_hour","shop_open_status":"unknown"},{"id":"10054972","type":2,"brand":"shell","name":"3310 KROSNO.","lat":49.691856,"lng":21.733789,"country_code":"PL","address":"ZRECINSKA 2A","city":"KROSNO","state":"Woj. podkarpackie","postcode":"38-400","telephone":"+48 513 528 736","country":"Poland","amenities":["standard_toilet","disabled_facilities","mobile_payment","hgv_lane","high_speed_diesel_pump","food_offerings","air_and_water","loyalty_cards","cafe","bottled_gas","credit_card","fuel_card","credit_card_general","wifi","parking_lanes","full_service","fleet_card_general","fleet_card_dkv","fleet_card_uta","fleet_card_esso","snack_food","costa_express","euroshell_card","twenty_four_hour","shop","truck_parking","deli_by_shell","adblue_truck","adblue_pack","go_plus","paycell","other_loyalty_cards","manned"],"inactive":false,"distance":159.24813806618,"driving_distance":null,"driving_duration":null,"website_url":"https://find.shell.com/pl/fuel/10054972-3310-krosno","open_status":"twenty_four_hour","next_open_status_change":null,"tz_offset":7200,"fuels":["premium_gasoline","premium_diesel","fuelsave_midgrade_gasoline","fuelsave_regular_diesel","autogas_lpg","super_premium_gasoline","truck_diesel"],"next_forecourt_open_status_change":null,"next_shop_open_status_change":null,"forecourt_open_status":"twenty_four_hour","shop_open_status":"unknown"},{"id":"10089598","type":0,"brand":"shell","name":"MASARYKA","lat":48.440215,"lng":22.739599,"country_code":"UA","address":"MASARYKA STR., 3","city":"Mukachevo","state":"","postcode":"89600","telephone":"+380 67 214 4709","country":"Ukraine","amenities":["standard_toilet","food_offerings","air_and_water","loyalty_cards","credit_card","fuel_card","credit_card_general","wifi","full_service","shell_card","twenty_four_hour","others","shop","loyalty_program","other_loyalty_cards","manned"],"inactive":false,"distance":173.70411370161,"driving_distance":null,"driving_duration":null,"website_url":"https://find.shell.com/ua/fuel/10089598-masaryka","open_status":"twenty_four_hour","next_open_status_change":null,"tz_offset":10800,"fuels":["premium_gasoline","premium_diesel","midgrade_gasoline","shell_regular_diesel"],"next_forecourt_open_status_change":null,"next_shop_open_status_change":null,"forecourt_open_status":"twenty_four_hour","shop_open_status":"unknown"},{"id":"10034772","type":2,"brand":"shell","name":"1409 KRASNIK","lat":50.929749,"lng":22.25348,"country_code":"PL","address":"KOLEJOWA 1","city":"KRASNIK","state":"Woj. lubelskie","postcode":"23-200","telephone":"+48 511 835 109","country":"Poland","amenities":["standard_toilet","disabled_facilities","mobile_payment","hgv_lane","high_speed_diesel_pump","food_offerings","air_and_water","loyalty_cards","cafe","credit_card","fuel_card","credit_card_general","wifi","parking_lanes","full_service","clubsmart_card","fleet_card_general","fleet_card_dkv","fleet_card_uta","snack_food","costa_express","euroshell_card","shop","truck_parking","deli_by_shell","adblue_truck","adblue_pack","go_plus","paycell","manned"],"inactive":false,"distance":174.62974860843,"driving_distance":null,"driving_duration":null,"website_url":"https://find.shell.com/pl/fuel/10034772-1409-krasnik","open_status":"unknown","next_open_status_change":null,"tz_offset":7200,"fuels":["premium_gasoline","premium_diesel","fuelsave_midgrade_gasoline","fuelsave_regular_diesel","autogas_lpg","truck_diesel"],"next_forecourt_open_status_change":null,"next_shop_open_status_change":null,"forecourt_open_status":"unknown","shop_open_status":"unknown"},{"id":"10057925","type":0,"brand":"shell","name":"MUKACHEVO","lat":48.450335,"lng":22.686597,"country_code":"UA","address":"AVTOMOBILISTIV STR, 1","city":"Klyachanovo","state":"","postcode":"89623","telephone":"+380 67 214 4661","country":"Ukraine","amenities":["standard_toilet","food_offerings","air_and_water","loyalty_cards","credit_card","fuel_card","credit_card_general","wifi","full_service","shell_card","twenty_four_hour","others","shop","loyalty_program","other_loyalty_cards","manned"],"inactive":false,"distance":174.71914165339,"driving_distance":null,"driving_duration":null,"website_url":"https://find.shell.com/ua/fuel/10057925-mukachevo","open_status":"twenty_four_hour","next_open_status_change":null,"tz_offset":10800,"fuels":["premium_gasoline","premium_diesel","midgrade_gasoline","shell_regular_diesel","autogas_lpg"],"next_forecourt_open_status_change":null,"next_shop_open_status_change":null,"forecourt_open_status":"twenty_four_hour","shop_open_status":"unknown"},{"id":"10084728","type":0,"brand":"shell","name":"BARANINCI","lat":48.589206,"lng":22.329122,"country_code":"UA","address":"ZAKARPATTIA REG, BARANINCI VILLAGE","city":"Baraninci","state":"","postcode":"89425","telephone":"+380 67 405 4952","country":"Ukraine","amenities":["standard_toilet","food_offerings","air_and_water","loyalty_cards","credit_card","fuel_card","credit_card_general","wifi","full_service","clubsmart_card","credit_card_visa","snack_food","shell_card","twenty_four_hour","others","shop","loyalty_program","other_loyalty_cards","manned"],"inactive":false,"distance":177.68316006917,"driving_distance":null,"driving_duration":null,"website_url":"https://find.shell.com/ua/fuel/10084728-baraninci","open_status":"twenty_four_hour","next_open_status_change":null,"tz_offset":10800,"fuels":["premium_gasoline","premium_diesel","midgrade_gasoline","low_octane_gasoline","shell_regular_diesel","autogas_lpg"],"next_forecourt_open_status_change":null,"next_shop_open_status_change":null,"forecourt_open_status":"twenty_four_hour","shop_open_status":"unknown"},{"id":"10057077","type":0,"brand":"shell","name":"8142 GORNIK","lat":51.298154,"lng":22.893995,"country_code":"PL","address":"CHELMSKA 61","city":"LECZNA","state":"Woj. lubelskie","postcode":"21-010","telephone":"+48 81 752 12 04","country":"Poland","amenities":["standard_toilet","carwash","high_speed_diesel_pump","air_and_water","loyalty_cards","credit_card","credit_card_general","full_service","clubsmart_card","fleet_card_general","fleet_card_dkv","fleet_card_uta","euroshell_card","twenty_four_hour","rollover","shop","adblue_pack","loyalty_program","manned"],"inactive":false,"distance":183.54508809531,"driving_distance":null,"driving_duration":null,"website_url":"https://find.shell.com/pl/fuel/10057077-8142-gornik","open_status":"twenty_four_hour","next_open_status_change":null,"tz_offset":7200,"fuels":["premium_gasoline","premium_diesel","fuelsave_midgrade_gasoline","fuelsave_regular_diesel","autogas_lpg","super_premium_gasoline","truck_diesel"],"next_forecourt_open_status_change":null,"next_shop_open_status_change":null,"forecourt_open_status":"twenty_four_hour","shop_open_status":"unknown"},{"id":"10034771","type":2,"brand":"shell","name":"1401 LUBLIN PZMOT.","lat":51.253504,"lng":22.562339,"country_code":"PL","address":"B PRUSA 8 A","city":"LUBLIN","state":"Woj. lubelskie","postcode":"20-064","telephone":"+48 511 828 841","country":"Poland","amenities":["standard_toilet","disabled_facilities","mobile_payment","hgv_lane","high_speed_diesel_pump","food_offerings","air_and_water","loyalty_cards","cafe","bottled_gas","credit_card","fuel_card","credit_card_general","wifi","parking_lanes","full_service","clubsmart_card","fleet_card_general","fleet_card_dkv","fleet_card_esso","snack_food","costa_express","euroshell_card","shop","deli_by_shell","adblue_pack","go_plus","paycell","shell_cafe","manned"],"inactive":false,"distance":189.9590076573,"driving_distance":null,"driving_duration":null,"website_url":"https://find.shell.com/pl/fuel/10034771-1401-lublin-pzmot","open_status":"unknown","next_open_status_change":null,"tz_offset":7200,"fuels":["premium_gasoline","premium_diesel","fuelsave_midgrade_gasoline","fuelsave_regular_diesel","autogas_lpg","super_premium_gasoline","truck_diesel"],"next_forecourt_open_status_change":null,"next_shop_open_status_change":null,"forecourt_open_status":"unknown","shop_open_status":"unknown"},{"id":"10034870","type":2,"brand":"shell","name":"1402 SPOLDZIEL. LUB","lat":51.26458,"lng":22.573417,"country_code":"PL","address":"SPOLDZIELCZOSCI PRACY 43","city":"LUBLIN","state":"Woj. lubelskie","postcode":"20-147","telephone":"+48 511 829 016","country":"Poland","amenities":["standard_toilet","disabled_facilities","mobile_payment","hgv_lane","high_speed_diesel_pump","food_offerings","air_and_water","loyalty_cards","cafe","bottled_gas","fuel_card","wifi","parking_lanes","full_service","fleet_card_general","fleet_card_dkv","fleet_card_uta","fleet_card_esso","snack_food","costa_express","euroshell_card","twenty_four_hour","shop","deli_by_shell","adblue_pack","go_plus","paycell","other_loyalty_cards","shell_cafe","manned"],"inactive":false,"distance":190.61084560854,"driving_distance":null,"driving_duration":null,"website_url":"https://find.shell.com/pl/fuel/10034870-1402-spoldziel-lub","open_status":"twenty_four_hour","next_open_status_change":null,"tz_offset":7200,"fuels":["premium_gasoline","premium_diesel","fuelsave_midgrade_gasoline","fuelsave_regular_diesel","autogas_lpg","super_premium_gasoline"],"next_forecourt_open_status_change":null,"next_shop_open_status_change":null,"forecourt_open_status":"twenty_four_hour","shop_open_status":"unknown"}]