{"data":{"service_filters":[{"icon":"vilka","name":"Розетка","id":1},{"icon":"wogpride","name":"WOG Pride","id":2},{"icon":"carwash","name":"Мийка","id":3},{"icon":"tirefitting","name":"Підкачка шин","id":4},{"icon":"parking","name":"Паркінг","id":5},{"icon":"wc","name":"Туалет","id":6},{"icon":"wifi","name":"WI-FI","id":7},{"icon":"wogcafe","name":"WOG Cafe","id":8},{"icon":"wogmarket","name":"WOG Market","id":9},{"icon":"charge","name":"Зарядка","id":10},{"icon":"baby","name":"Пеленальні столики","id":11},{"icon":"rozetka2","name":"Rozetka","id":12},{"icon":"ibox","name":"IBox","id":13},{"icon":"tire","name":"ШИНОМОНТАЖ","id":14}],"fuel_filters":[{"price":5700,"cla":"#5d71b1","brand":"Євро5","name":"ДП","id":9},{"price":5800,"cla":"#cf5c72","brand":"Mustang+","name":"ДП","id":6},{"price":5100,"cla":"#5d71b1","brand":"Євро5","name":"92","id":8},{"price":5100,"cla":"#5d71b1","brand":"Євро5","name":"95","id":2},{"price":5200,"cla":"#cf5c72","brand":"Mustang","name":"95","id":5},{"price":5200,"cla":"#cf5c72","brand":"Mustang","name":"100","id":7},{"price":1965,"cla":"#4484ff","name":"ГАЗ","id":3}],"applied_service_filters":[],"applied_fuel_filters":[],"stations":[{"link":"https://api.wog.ua/fuel_stations/807","city":"Могилів-Подільський","coordinates":{"longitude":27.796942,"latitude":48.451743},"name":"Вінницька обл., м.Могилів-Подільський, вул.Пушкіна, 74","id":807},{"link":"https://api.wog.ua/fuel_stations/808","city":"Хмельницький","coordinates":{"longitude":27.028361,"latitude":49.429083},"name":"м.Хмельницький, вул.Вінницька, 2/2","id":808},{"link":"https://api.wog.ua/fuel_stations/809","city":"Харків","coordinates":{"longitude":36.250038,"latitude":49.996032},"name":"м.Харків, вл.Шевченка, 41","id":809},{"link":"https://api.wog.ua/fuel_stations/812","city":"Говтвянчик","coordinates":{"longitude":34.462094,"latitude":49.565245},"name":"Полтавський р-н, с.Говтвянчик, вул.Київське шосе, 1 + Restorio","id":812},{"link":"https://api.wog.ua/fuel_stations/813","city":"Київ","coordinates":{"longitude":30.60625,"latitude":50.408194},"name":"м.Київ, вул. Дніпровська Набережна, 17В","id":813},{"link":"https://api.wog.ua/fuel_stations/814","city":"Київ","coordinates":{"longitude":30.3848395,"latitude":50.490624},"name":"м.Київ, вул. Стеценка, 21","id":814},{"link":"https://api.wog.ua/fuel_stations/816","city":"Миколаїв","coordinates":{"longitude":31.90409,"latitude":46.985442},"name":"м. Миколаїв, вул. Одеське шосе, 116 , а/д М-14 Одеса-Миколаїв-Новоазовськ , 127 км , ліворуч","id":816},{"link":"https://api.wog.ua/fuel_stations/817","city":"Запоріжжя","coordinates":{"longitude":35.244733,"latitude":47.850255},"name":"м. Запоріжжя, вул. Донецьке шосе, 7","id":817},{"link":"https://api.wog.ua/fuel_stations/818","city":"Запоріжжя","coordinates":{"longitude":35.239986,"latitude":47.839143},"name":"м. Запоріжжя, вул. Магістральна, 100б, біля заводу \"АЙС\"","id":818},{"link":"https://api.wog.ua/fuel_stations/823","city":"Запоріжжя","coordinates":{"longitude":35.02942,"latitude":47.815623},"name":"м. Запоріжжя, пр. Ювілейний, 36","id":823},{"link":"https://api.wog.ua/fuel_stations/824","city":"Сонячне","coordinates":{"longitude":35.021478,"latitude":47.888073},"name":"Запорізький р-н, с. Сонячне, вул. Паркова, 1","id":824},{"link":"https://api.wog.ua/fuel_stations/825","city":"Запоріжжя","coordinates":{"longitude":35.2074,"latitude":47.763138},"name":"м. Запоріжжя, вул. Дослідна станція, 2в","id":825},{"link":"https://api.wog.ua/fuel_stations/826","city":"Дніпро","coordinates":{"longitude":35.033556,"latitude":48.390478},"name":"м. Дніпропетровськ, вул.Панікахі (в районі буд. №91) ","id":826},{"link":"https://api.wog.ua/fuel_stations/827","city":"Слобожанське","coordinates":{"longitude":35.0721,"latitude":48.547079},"name":"м. Дніпропетровськ, Донецьке шосе  (тереторія Ювілейної с/р, виїзд на Підгороднє)","id":827},{"link":"https://api.wog.ua/fuel_stations/828","city":"Дніпро","coordinates":{"longitude":34.938929,"latitude":48.426895},"name":"м. Дніпропетровськ, Криворізьке шосе, с.Дороге (виїзд з Дніпропетровська на Кривий Ріг)","id":828},{"link":"https://api.wog.ua/fuel_stations/829","city":"Дніпро","coordinates":{"longitude":34.989624,"latitude":48.405433},"name":"м. Дніпропетровськ , вул.Бориса Кротова, 22 Д","id":829},{"link":"https://api.wog.ua/fuel_stations/830","city":"Кам’янське","coordinates":{"longitude":34.679154,"latitude":48.481076},"name":"м. Дніпродзержинськ, вул. Дніпропетровська, 83","id":830},{"link":"https://api.wog.ua/fuel_stations/832","city":"Павлоград","coordinates":{"longitude":35.960811,"latitude":48.496443},"name":"Дніпропетровська обл.,Павлоградський р-н, с.Богуслав, вул.Лінійна,2а","id":832},{"link":"https://api.wog.ua/fuel_stations/833","city":"Новомосковськ","coordinates":{"longitude":35.269896,"latitude":48.662488},"name":"м. Новомосковськ, вул. Радянська 234, б","id":833},{"link":"https://api.wog.ua/fuel_stations/834","city":"Вишневе","coordinates":{"longitude":33.843391,"latitude":48.03981},"name":"Софіївський р-н, с. Вишневе, вул. Татарця, 21а  (вїзд в смт.Софіївка з Кривого Рогу)","id":834},{"link":"https://api.wog.ua/fuel_stations/835","city":"Кропивницький","coordinates":{"longitude":32.2646,"latitude":48.493904},"name":"м.Кіровоград, вул.Садова,буд.43","id":835},{"link":"https://api.wog.ua/fuel_stations/836","city":"Київ","coordinates":{"longitude":30.446777,"latitude":50.361432},"name":"м.Київ, вул.Глушкова, 139 + Restorio","id":836},{"link":"https://api.wog.ua/fuel_stations/838","city":"Юрівка","coordinates":{"longitude":30.396085,"latitude":50.328528},"name":"Києво-Святошинський район, с. Чабани, автошлях Київ-Одеса, 18 км, праворуч, 1219км тр.С.Петербург-Київ-Одеса перед поворотом на Віту Почтову","id":838},{"link":"https://api.wog.ua/fuel_stations/839","city":"Здолбунів","coordinates":{"longitude":26.226387,"latitude":50.528433},"name":"Рівненська обл., м. Здолбунів, вул. Коперніка, 49","id":839},{"link":"https://api.wog.ua/fuel_stations/841","city":"Тернопіль","coordinates":{"longitude":25.636145,"latitude":49.549606},"name":"м. Тернопіль, вул. 15 квітня, 2а","id":841},{"link":"https://api.wog.ua/fuel_stations/842","city":"Тернопіль","coordinates":{"longitude":25.597633,"latitude":49.534366},"name":"м. Тернопіль, вул. C. Будного 4а","id":842},{"link":"https://api.wog.ua/fuel_stations/843","city":"Чортків","coordinates":{"longitude":25.767211,"latitude":49.000882},"name":"м.Чортків, вул. Ягільницька б/н","id":843},{"link":"https://api.wog.ua/fuel_stations/844","city":"Почаїв","coordinates":{"longitude":25.522568,"latitude":50.011033},"name":"смт. Почаїв, вул. Кременецька, 27","id":844},{"link":"https://api.wog.ua/fuel_stations/845","city":"Ланівці","coordinates":{"longitude":26.07998,"latitude":49.851421},"name":"м. Ланівці, вул. Тернопільська, 49","id":845},{"link":"https://api.wog.ua/fuel_stations/846","city":"Заліщики","coordinates":{"longitude":25.721819,"latitude":48.6627},"name":"м. Заліщики, вул.Степана Бандери, 118","id":846},{"link":"https://api.wog.ua/fuel_stations/847","city":"Дружба","coordinates":{"longitude":25.645392,"latitude":49.36271},"name":"Теребовлянський р-н., смт. Дружба, вул. Лесі Українки, 2 а","id":847},{"link":"https://api.wog.ua/fuel_stations/848","city":"Кременець","coordinates":{"longitude":25.719335,"latitude":50.123068},"name":"м. Кременець, вул. Лятуринської, 17","id":848},{"link":"https://api.wog.ua/fuel_stations/849","city":"Бережани","coordinates":{"longitude":24.942897,"latitude":49.447424},"name":"м. Бережани, вул. Тернопільська, 9","id":849},{"link":"https://api.wog.ua/fuel_stations/850","city":"Борщів","coordinates":{"longitude":26.065569,"latitude":48.804478},"name":"м. Борщів, вул. С.Бандери, 146а","id":850},{"link":"https://api.wog.ua/fuel_stations/851","city":"Підволочиськ","coordinates":{"longitude":26.12935,"latitude":49.51565},"name":"Підволочиський р-н, с. Мислова, вул.Я.Бойчука (об'їздна)","id":851},{"link":"https://api.wog.ua/fuel_stations/852","city":"Бучач","coordinates":{"longitude":25.342201,"latitude":49.070579},"name":"м.Бучач а/д КамянецьПодільський-Чортків-Ів.Франківськ (км113+700) (вул. Галицька, 194)","id":852},{"link":"https://api.wog.ua/fuel_stations/853","city":"Тернопіль","coordinates":{"longitude":25.620617,"latitude":49.575692},"name":"м. Тернопіль, вул. Текстильна, 28а","id":853},{"link":"https://api.wog.ua/fuel_stations/854","city":"Тернопіль","coordinates":{"longitude":25.606537,"latitude":49.513884},"name":"м. Тернопіль, вул. Микулинецька, 114","id":854},{"link":"https://api.wog.ua/fuel_stations/855","city":"Довжанка","coordinates":{"longitude":25.508946,"latitude":49.568813},"name":"а/д Умань-Львів -Краківець км 406+350м м.Тернопіль","id":855},{"link":"https://api.wog.ua/fuel_stations/856","city":"Зоря","coordinates":{"longitude":33.733534,"latitude":48.423134},"name":"с. Зоря Комунізму, вул. Молодіжна, 55 (вїзд в м.П`ятихатки)","id":856},{"link":"https://api.wog.ua/fuel_stations/857","city":"Дніпро","coordinates":{"longitude":34.943633,"latitude":48.428585},"name":"м. Дніпропетровськ, Криворізьке шосе, 33  (вїзд в Дніпропетровськ)","id":857},{"link":"https://api.wog.ua/fuel_stations/858","city":"Лобойківка","coordinates":{"longitude":34.68916,"latitude":48.652827},"name":"Дніпропетровська обл. Петриківський р-н, територія Єлизаветівської с\\р, а\\д Дніпропетровськ-Царичанка-Кобиляки-Решитилівка, 43км","id":858},{"link":"https://api.wog.ua/fuel_stations/859","city":"Тернопіль","coordinates":{"longitude":25.647325,"latitude":49.544847},"name":"Р-н Тернопільський, с.Бакіївці, вул.Смиковецька,3","id":859},{"link":"https://api.wog.ua/fuel_stations/860","city":"Велика Березовиця","coordinates":{"longitude":25.618371,"latitude":49.490299},"name":"Тернопільський р-н, с. Велика Березовиця вул.Микулинецька, 127","id":860},{"link":"https://api.wog.ua/fuel_stations/861","city":"Тернопіль","coordinates":{"longitude":25.617464,"latitude":49.5301},"name":"c. Вел. Гаї (об'їзна Тернополя, 8 км)","id":861},{"link":"https://api.wog.ua/fuel_stations/862","city":"Тернопіль","coordinates":{"longitude":25.617573,"latitude":49.529594},"name":"с. Вел. Гаї (об'їзна Тернополя, 6 км)","id":862},{"link":"https://api.wog.ua/fuel_stations/863","city":"Збараж","coordinates":{"longitude":25.774742,"latitude":49.664873},"name":"м. Збараж, вул.Січових стрільців, 1б","id":863},{"link":"https://api.wog.ua/fuel_stations/864","city":"Солотвино","coordinates":{"longitude":23.886316,"latitude":47.954966},"name":"Тячівський р-н с. Солотвино, вул. Спортивна, 125А","id":864},{"link":"https://api.wog.ua/fuel_stations/865","city":"Махнівка","coordinates":{"longitude":28.680286,"latitude":49.736414},"name":"Козятинський р-н, с. Комсомольське, перехрестя а/д Кременець-Біла Церква та Житомир-Вінниця, км 243+580","id":865},{"link":"https://api.wog.ua/fuel_stations/866","city":"Панталія","coordinates":{"longitude":25.782812,"latitude":50.443562},"name":"Рівненська обл., Дубенський р., с. Привільне, вул. Дубенська, буд.6","id":866},{"link":"https://api.wog.ua/fuel_stations/867","city":"Острог","coordinates":{"longitude":26.487081,"latitude":50.339138},"name":"Рівненська обл., Острозький р., с. Межирич, вул. Хутірська, буд. 21","id":867},{"link":"https://api.wog.ua/fuel_stations/868","city":"Полтава","coordinates":{"longitude":34.508498,"latitude":49.560919},"name":"м.Полтава, вул..Серьогіна,2А  (автодорога Київ-Харків-Довжанський 341 км)","id":868},{"link":"https://api.wog.ua/fuel_stations/869","city":"Сапіжанка","coordinates":{"longitude":24.333167,"latitude":50.076164},"name":"Камянко Бузький р-н, с.Сапіжанка, вул.В.Великого,89","id":869},{"link":"https://api.wog.ua/fuel_stations/870","city":"Львів","coordinates":{"longitude":24.074276,"latitude":49.85626},"name":"м. Львів, вул. Богданівська, 11","id":870},{"link":"https://api.wog.ua/fuel_stations/871","city":"Львів","coordinates":{"longitude":24.078629,"latitude":49.811214},"name":"м.Львів, вул.Пасічна. 144","id":871},{"link":"https://api.wog.ua/fuel_stations/872","city":"Дуліби","coordinates":{"longitude":23.830187,"latitude":49.234507},"name":"Стрийський р-н, с. Дуліби, вул. Заводська, 37","id":872},{"link":"https://api.wog.ua/fuel_stations/873","city":"Львів","coordinates":{"longitude":24.013294,"latitude":49.781011},"name":"Пустомитівський р-н, с. Сокільники, вул. Стрийська,12","id":873},{"link":"https://api.wog.ua/fuel_stations/874","city":"Глиниці","coordinates":{"longitude":23.13539,"latitude":49.955334},"name":"Яворівський р-н, с. Глиниці","id":874},{"link":"https://api.wog.ua/fuel_stations/875","city":"Воля-Бартатівська","coordinates":{"longitude":23.78411,"latitude":49.799237},"name":"Городоцький р-н, с. Бартатів, вул. Львівська 33 б","id":875},{"link":"https://api.wog.ua/fuel_stations/876","city":"Рясне-Руське","coordinates":{"longitude":23.894156,"latitude":49.872933},"name":"Яворівський р-н, с.Рясне-Руська 546 км+350 а/д Умань- Краковець (об'їзна м.Львів)","id":876},{"link":"https://api.wog.ua/fuel_stations/877","city":"Трускавець","coordinates":{"longitude":23.515589,"latitude":49.285677},"name":"м.Трускавець, вул. Мазепи, 25 б","id":877},{"link":"https://api.wog.ua/fuel_stations/878","city":"Жовква","coordinates":{"longitude":24.000099,"latitude":50.046852},"name":"Жовківський р-н, с.Сопошин, вул.Львівська","id":878},{"link":"https://api.wog.ua/fuel_stations/879","city":"Річки","coordinates":{"longitude":23.602652,"latitude":50.259404},"name":"Жовківський р-н, с.Річки, а/д М09 Львів - Рава-Руська, 65км + 900м, ліворуч","id":879},{"link":"https://api.wog.ua/fuel_stations/880","city":"Шегині","coordinates":{"longitude":23.001945,"latitude":49.798594},"name":"Мостиський р-н, с. Шегіні","id":880},{"link":"https://api.wog.ua/fuel_stations/881","city":"Глибочиця","coordinates":{"longitude":28.815562,"latitude":50.286005},"name":"Житомирській р-н, с. Левків, виїзд з Житомира на Київ","id":881},{"link":"https://api.wog.ua/fuel_stations/884","city":"Кам'янець-Подільський","coordinates":{"longitude":26.569756,"latitude":48.653303},"name":"Кам'янець-Подільський р-н, с.Смотрич, вул. Леніна,32","id":884},{"link":"https://api.wog.ua/fuel_stations/885","city":"Старокостянтинів","coordinates":{"longitude":27.218201,"latitude":49.738606},"name":"м. Старокостянтинів, вул. 1 Травня, 127","id":885},{"link":"https://api.wog.ua/fuel_stations/886","city":"Хмельницький","coordinates":{"longitude":27.020754,"latitude":49.450702},"name":"Хмельницький р-н, с/рада Стуфчинецька, вул. Старокостянтинівське шосе,1Б, автодорога Житомир-Чернівці-Тереблече178км+264км","id":886},{"link":"https://api.wog.ua/fuel_stations/887","city":"Краковець","coordinates":{"longitude":23.156794,"latitude":49.949191},"name":"Львівська обл., Яворівський р-н, територія Краківецької с/р, біля а/д Львів-Краківець 67км+230м праворуч","id":887},{"link":"https://api.wog.ua/fuel_stations/888","city":"Коростівці","coordinates":{"longitude":28.044969,"latitude":49.027755},"name":"Жмеринський р-н, с Коростівці, вул Шевченка, 1-а, перехрестя а/д Виступовичі-Овруч-Могилів-Подільський (км 346+200м ліворуч) та Жмеринка-Чернятин-Бар(1+50м ліворуч)","id":888},{"link":"https://api.wog.ua/fuel_stations/889","city":"Умань","coordinates":{"longitude":30.259291,"latitude":48.772116},"name":"м. Умань, вул.Бандери Степана, буд.4В","id":889},{"link":"https://api.wog.ua/fuel_stations/890","city":"Жашків","coordinates":{"longitude":30.091181,"latitude":49.256763},"name":"м. Жашків, вул. Одеська, 50 в","id":890},{"link":"https://api.wog.ua/fuel_stations/891","city":"Умань","coordinates":{"longitude":30.257866,"latitude":48.77244},"name":"м. Умань, вул.Бандери Степана, буд.1Б","id":891},{"link":"https://api.wog.ua/fuel_stations/892","city":"Знам'янка","coordinates":{"longitude":32.630062,"latitude":48.721402},"name":"Знам'янський р-н,с.Дмитрівка, с/рада Дмитрівська, а/д Знам'янка- Луганськ-Ізварине(на м.Волгоград через м.Дніпро, Донецьк)0км.+593м(м. Знам’янка, вул. Партизанська 70)","id":892},{"link":"https://api.wog.ua/fuel_stations/893","city":"Червона Слобода","coordinates":{"longitude":32.128028,"latitude":49.39647},"name":"Черкаський р-н, с. Червона Слобода, вул. Жовтнева 16/4","id":893},{"link":"https://api.wog.ua/fuel_stations/894","city":"Умань","coordinates":{"longitude":30.247506,"latitude":48.723376},"name":"Уманський р-н, с. Полянецьке (а/д Стрий-Тернопіль-Кіровоград-Знам'янка (через Вінницю),550км+467м,(праворуч)","id":894},{"link":"https://api.wog.ua/fuel_stations/895","city":"Нова Дмитрівка","coordinates":{"longitude":31.980027,"latitude":49.700983},"name":"Золотоноський р-н., 108(+800м) км траси Бориспіль-Дніпропетровськ, с.Нова Дмитрівка","id":895},{"link":"https://api.wog.ua/fuel_stations/896","city":"Богданівка","coordinates":{"longitude":32.112643,"latitude":50.228282},"name":"Драбовський р-н,с.Кононівка,а/д Київ-Харків,126км+200","id":896},{"link":"https://api.wog.ua/fuel_stations/897","city":"Черкаси","coordinates":{"longitude":32.022229,"latitude":49.41904},"name":"м. Черкаси, вул. 30-річчя Перемоги, 7/1","id":897},{"link":"https://api.wog.ua/fuel_stations/898","city":"Київ","coordinates":{"longitude":30.653697,"latitude":50.468316},"name":"м.Київ, Броварський проспект, 3а","id":898},{"link":"https://api.wog.ua/fuel_stations/900","city":"Київ","coordinates":{"longitude":30.612033,"latitude":50.49689},"name":"м. Київ, вул. Електротехнічна,2-б, район ринку \"Троєщина\", в бік монетного двору НБУ","id":900},{"link":"https://api.wog.ua/fuel_stations/902","city":"Вишгород","coordinates":{"longitude":30.495617,"latitude":50.585054},"name":"м.Вишгород, вул. Набережна, 4Б, поруч із в'їздом у Вишгород з боку Київської ГЕС","id":902},{"link":"https://api.wog.ua/fuel_stations/904","city":"Київ","coordinates":{"longitude":30.499589,"latitude":50.346196},"name":"м.Київ,Академіка Заболотного,174А, кільцева дорога в бік Обухова, район Пирогово","id":904},{"link":"https://api.wog.ua/fuel_stations/905","city":"Бориспіль","coordinates":{"longitude":30.942261,"latitude":50.398478},"name":"Бориспільський район, Сенківська с/р, Північно-Східний обхід м. Києва, 11 км.+ 200 м. (с. Дударків), праворуч, об'їзна Борисполя, в бік Харкова","id":905},{"link":"https://api.wog.ua/fuel_stations/906","city":"Новомосковськ","coordinates":{"longitude":35.235988,"latitude":48.635661},"name":"Дніпропетровська обл., м.Новомосковськ, вул.Сучкова, навпроти ПМК-91","id":906},{"link":"https://api.wog.ua/fuel_stations/907","city":"Обухів","coordinates":{"longitude":30.66329,"latitude":50.133578},"name":"м. Обухів, вул. Піщана, 101в, траса Київ-Луганськ 43км+375м, праворуч","id":907},{"link":"https://api.wog.ua/fuel_stations/908","city":"Київ","coordinates":{"longitude":30.554087,"latitude":50.344511},"name":"м. Київ, Столичне шосе, 96, перехрестя із Заболотного, в'їзд у Київ з боку Обухова, в напрямку Корчуватого","id":908},{"link":"https://api.wog.ua/fuel_stations/910","city":"Київ","coordinates":{"longitude":30.502488,"latitude":50.345003},"name":"м.Київ,Академіка Заболотного,31Ж,  кільцева дорога в бік Житомира, район Пирогово","id":910},{"link":"https://api.wog.ua/fuel_stations/911","city":"Здорівка","coordinates":{"longitude":30.244657,"latitude":50.210038},"name":"Васильківський район, Здорівська с/р, а/д Київ-Одеса, 35 км.+900 м. (праворуч)","id":911},{"link":"https://api.wog.ua/fuel_stations/912","city":"Київ","coordinates":{"longitude":30.570994,"latitude":50.416954},"name":"м.Київ,Наддніпрянське шосе, 8, між мостами Дарницький та Патона в бік Подолу","id":912},{"link":"https://api.wog.ua/fuel_stations/913","city":"Київ","coordinates":{"longitude":30.476561,"latitude":50.448354},"name":"м.Київ, пр-т Перемоги, 11 б, в бік Бесарабки, поруч із центральним ЗАГСом,","id":913},{"link":"https://api.wog.ua/fuel_stations/914","city":"Здорівка","coordinates":{"longitude":30.2465,"latitude":50.209292},"name":"Васильківський район, Путрівська с/р, а/д Київ-Одеса, 35 км.+900 м. (ліворуч)","id":914},{"link":"https://api.wog.ua/fuel_stations/916","city":"Вінниця","coordinates":{"longitude":28.474303,"latitude":49.25196},"name":"м.Вінниця, вул.Київська,76","id":916},{"link":"https://api.wog.ua/fuel_stations/917","city":"Вінниця","coordinates":{"longitude":28.50727,"latitude":49.230284},"name":"м.Вінниця, вул.Лебединського,4а","id":917},{"link":"https://api.wog.ua/fuel_stations/918","city":"Вінниця","coordinates":{"longitude":28.512895,"latitude":49.230822},"name":"м.Вінниця, вул.Лебединського,15а","id":918},{"link":"https://api.wog.ua/fuel_stations/919","city":"Вінниця","coordinates":{"longitude":28.431497,"latitude":49.225215},"name":"м.Вінниця, вул.Келецька,47а","id":919},{"link":"https://api.wog.ua/fuel_stations/920","city":"Київ","coordinates":{"longitude":30.51559,"latitude":50.412134},"name":"м.Київ, вул.Ізюмська, 2","id":920},{"link":"https://api.wog.ua/fuel_stations/921","city":"Пирятин","coordinates":{"longitude":32.493377,"latitude":50.231585},"name":"Полтавська обл., м.Пирятин, автодорога М-03 Київ-Харків-Довжанський км 154+688 (ліворуч)","id":921},{"link":"https://api.wog.ua/fuel_stations/922","city":"Запоріжжя","coordinates":{"longitude":35.150732,"latitude":47.837974},"name":"м.Запоріжжя, вул.Перемоги 90","id":922},{"link":"https://api.wog.ua/fuel_stations/923","city":"Кам'янець-Подільський","coordinates":{"longitude":26.600734,"latitude":48.722694},"name":"м.Кам'янець-Подільський, проспект. Грушевського, 1/10","id":923},{"link":"https://api.wog.ua/fuel_stations/924","city":"Курилівка","coordinates":{"longitude":34.5879,"latitude":48.573401},"name":"Дніпропетровська обл., Петриківський р-н, смт.Курилівка, вул.Зоряна 1Б","id":924},{"link":"https://api.wog.ua/fuel_stations/925","city":"Луцьк","coordinates":{"longitude":25.36024,"latitude":50.742534},"name":"м. Луцьк,вул Рівненська 22","id":925},{"link":"https://api.wog.ua/fuel_stations/926","city":"Любешів","coordinates":{"longitude":25.487908,"latitude":51.752083},"name":"смт.Любешів, вул. Незалежності, 2а","id":926},{"link":"https://api.wog.ua/fuel_stations/927","city":"Горохів","coordinates":{"longitude":24.762711,"latitude":50.502214},"name":"м. Горохів, вул. Луцька, 47","id":927},{"link":"https://api.wog.ua/fuel_stations/928","city":"Вербка","coordinates":{"longitude":24.691492,"latitude":51.24582},"name":"м. Ковель, вул. Брестська, 141","id":928},{"link":"https://api.wog.ua/fuel_stations/929","city":"Луцьк","coordinates":{"longitude":25.376845,"latitude":50.766054},"name":"Луцький р-н, с.Липини, вул.Відродження, 40 (м. Луцьк, проспект Відродження, 40)","id":929},{"link":"https://api.wog.ua/fuel_stations/930","city":"Ковель","coordinates":{"longitude":24.773768,"latitude":51.190967},"name":"Ковельський р-н, с. Колодяжне, вул. Луцька, 2а","id":930},{"link":"https://api.wog.ua/fuel_stations/931","city":"Ковель","coordinates":{"longitude":24.672387,"latitude":51.201189},"name":"м. Ковель, вул. Варшавська, 3","id":931},{"link":"https://api.wog.ua/fuel_stations/934","city":"Кругле","coordinates":{"longitude":26.354648,"latitude":50.608643},"name":"Рівненська обл., на території Білокриницької с\\р, а\\д Київ-Чоп, км 321+600(лів.)+ Restorio","id":934},{"link":"https://api.wog.ua/fuel_stations/936","city":"Первомайськ","coordinates":{"longitude":30.826758,"latitude":48.04803},"name":"Миколаївська обл.,м.Первомайськ, вул. Краснофлотська, 41-Б","id":936},{"link":"https://api.wog.ua/fuel_stations/937","city":"Вознесенськ","coordinates":{"longitude":31.318016,"latitude":47.596164},"name":"Миколаївська обл., м.Вознесенськ, вул.Жовтневої революції, 242-Г","id":937},{"link":"https://api.wog.ua/fuel_stations/938","city":"Миколаїв","coordinates":{"longitude":31.979715,"latitude":46.966072},"name":"м. Миколаїв, вул. Чкалова, 23/1","id":938},{"link":"https://api.wog.ua/fuel_stations/940","city":"Бранів","coordinates":{"longitude":26.866533,"latitude":50.594633},"name":"Корецький р-н, с. Бранів, вул. Корецька, 8","id":940},{"link":"https://api.wog.ua/fuel_stations/941","city":"Гоща","coordinates":{"longitude":26.67181,"latitude":50.614346},"name":"Рівненська обл.,Гощанський р., смт. Гоща, вул. Рівненська (вул. Калініна) , буд. 74-а","id":941},{"link":"https://api.wog.ua/fuel_stations/942","city":"Струмівка","coordinates":{"longitude":25.426018,"latitude":50.746621},"name":"Луцький р-н, с. Струмівка, а/д Устилуг-Луцьк-Рівне 96км + 240м","id":942},{"link":"https://api.wog.ua/fuel_stations/943","city":"Луцьк","coordinates":{"longitude":25.270817,"latitude":50.744968},"name":"м. Луцьк, Володимирська, 1а","id":943},{"link":"https://api.wog.ua/fuel_stations/944","city":"Луцьк","coordinates":{"longitude":25.355447,"latitude":50.765289},"name":"м. Луцьк, Конякіна 22 а","id":944},{"link":"https://api.wog.ua/fuel_stations/945","city":"Рівне","coordinates":{"longitude":26.23724,"latitude":50.612459},"name":"м. Рівне, вул. Мендєлєєва , 26, АЗС “Сюрприз”","id":945},{"link":"https://api.wog.ua/fuel_stations/946","city":"Дубно","coordinates":{"longitude":25.74136,"latitude":50.428402},"name":"м. Дубно, вул. Комунальна, 2","id":946},{"link":"https://api.wog.ua/fuel_stations/948","city":"Житомир","coordinates":{"longitude":28.673383,"latitude":50.230598},"name":"Житомирський р-н, с. Зарічани, вул. Бердичевське шосе, 3а","id":948},{"link":"https://api.wog.ua/fuel_stations/949","city":"Слобожанське","coordinates":{"longitude":35.06941,"latitude":48.543304},"name":"Дніпропетровська обл., Дніпропетровський р-н, сел. Ювілейне, вул.Кримська,7, мікрорайон \"Золоті ключі\"","id":949},{"link":"https://api.wog.ua/fuel_stations/950","city":"Житомир","coordinates":{"longitude":28.68454,"latitude":50.275555},"name":"м. Житомир, вул. Ватутіна, 63","id":950},{"link":"https://api.wog.ua/fuel_stations/951","city":"Житомир","coordinates":{"longitude":28.703275,"latitude":50.263771},"name":"м. Житомир, вул. Вітрука, 1","id":951},{"link":"https://api.wog.ua/fuel_stations/952","city":"Марушівка","coordinates":{"longitude":27.788481,"latitude":50.558012},"name":"Новоград-Волинський р-н, с. Броники, а/т Київ - Чоп","id":952},{"link":"https://api.wog.ua/fuel_stations/955","city":"Сокаль","coordinates":{"longitude":24.290783,"latitude":50.477747},"name":"м. Сокаль, вул. Героїв УПА, 19","id":955},{"link":"https://api.wog.ua/fuel_stations/956","city":"Червоноград","coordinates":{"longitude":24.232704,"latitude":50.401281},"name":"м. Червоноград, вул. Б.Хмельницького, 63а","id":956},{"link":"https://api.wog.ua/fuel_stations/957","city":"Солонка","coordinates":{"longitude":24.015158,"latitude":49.762558},"name":"Пустомитівський р-н, с. Солонка,  553 км а/д Київ-Чоп","id":957},{"link":"https://api.wog.ua/fuel_stations/958","city":"Запитів","coordinates":{"longitude":24.225486,"latitude":49.917119},"name":"Львівська обл., Камянко Бузький р-н.,  с. Запитів, вул. Київська, 201","id":958},{"link":"https://api.wog.ua/fuel_stations/959","city":"Львів","coordinates":{"longitude":24.022823,"latitude":49.855365},"name":"м. Львів, пр. В.Чорновола,10","id":959},{"link":"https://api.wog.ua/fuel_stations/960","city":"Малехів","coordinates":{"longitude":24.064106,"latitude":49.877979},"name":"м. Львів, вул. Б.Хмельницького, 291","id":960},{"link":"https://api.wog.ua/fuel_stations/961","city":"Львів","coordinates":{"longitude":24.021828,"latitude":49.812225},"name":"м.Львів, вул.Луганська - Стрийська","id":961},{"link":"https://api.wog.ua/fuel_stations/962","city":"Львів","coordinates":{"longitude":24.054774,"latitude":49.86566},"name":"м.Львів, пер. вул.Б.Хмельницького,192а","id":962},{"link":"https://api.wog.ua/fuel_stations/963","city":"Малі Підліски","coordinates":{"longitude":24.157415,"latitude":49.912005},"name":"Жовківський р-н, с.Гамаліївка 528 км. а/д Київ — Чоп","id":963},{"link":"https://api.wog.ua/fuel_stations/964","city":"Львів","coordinates":{"longitude":23.920227,"latitude":49.822416},"name":"м. Львів, вул. Городоцька, 288","id":964},{"link":"https://api.wog.ua/fuel_stations/965","city":"Львів","coordinates":{"longitude":24.015661,"latitude":49.867719},"name":"м. Львів, пр. В.Чорновола,107 \"Гама-Хім\"","id":965},{"link":"https://api.wog.ua/fuel_stations/968","city":"Львів","coordinates":{"longitude":23.980178,"latitude":49.833178},"name":"м. Львів, вул. Кузневича, 5","id":968},{"link":"https://api.wog.ua/fuel_stations/969","city":"Львів","coordinates":{"longitude":24.021586,"latitude":49.76822},"name":"501 км траси Київ-Чоп (мотель \"Катерина\")","id":969},{"link":"https://api.wog.ua/fuel_stations/970","city":"Мостиська","coordinates":{"longitude":23.139122,"latitude":49.793743},"name":"Львівська обл., Мостиський р.,  м. Мостиська, вул. Грушевського М., буд. 52","id":970},{"link":"https://api.wog.ua/fuel_stations/971","city":"Новояворівськ","coordinates":{"longitude":23.573564,"latitude":49.925796},"name":"Яворівський р-н, м. Новояворівськ, вул. Львівська, 2","id":971},{"link":"https://api.wog.ua/fuel_stations/972","city":"Житомир","coordinates":{"longitude":28.669186,"latitude":50.306833},"name":"м. Житомир, вул. Щорса, 269 (с.Оліївка)","id":972},{"link":"https://api.wog.ua/fuel_stations/974","city":"Новоград-Волинський","coordinates":{"longitude":27.605783,"latitude":50.587606},"name":"м. Новоград-Волинський, вул. Шевченка, 43","id":974},{"link":"https://api.wog.ua/fuel_stations/975","city":"Новоград-Волинський","coordinates":{"longitude":27.674103,"latitude":50.585081},"name":"Новоград Волинський р-н, с. Нова Романівка, вул. Житомирське шосе, 31","id":975},{"link":"https://api.wog.ua/fuel_stations/976","city":"Київ","coordinates":{"longitude":30.614153,"latitude":50.399981},"name":"м. Київ, Дніпровська Набережна, 16 -б, район Осокорків, поруч із перехрестям з просп. Бажана","id":976},{"link":"https://api.wog.ua/fuel_stations/980","city":"Бориспіль","coordinates":{"longitude":30.912615,"latitude":50.368029},"name":"м. Бориспіль, тр. Київ-Харків, 34км+700м, справа, на в'їзді в місто з боку Києва","id":980},{"link":"https://api.wog.ua/fuel_stations/981","city":"Стара Московка","coordinates":{"longitude":36.049968,"latitude":49.960489},"name":"автодорога Київ-Харків-Довжанський 464км.+850м. ліворуч (виїзд з пгт. Пісочин в сторону м. Київ)","id":981},{"link":"https://api.wog.ua/fuel_stations/982","city":"Харків","coordinates":{"longitude":36.344841,"latitude":49.975121},"name":"м.Харків,вул.Тракторобудівельників,1а","id":982},{"link":"https://api.wog.ua/fuel_stations/985","city":"Одеса","coordinates":{"longitude":30.715499,"latitude":46.4947},"name":"м. Одеса,вул. Балківська, 2, (Пересипський міст)","id":985},{"link":"https://api.wog.ua/fuel_stations/986","city":"Одеса","coordinates":{"longitude":30.707867,"latitude":46.478942},"name":"м. Одеса, вул. Балківська, 53 (Автовокзал)","id":986},{"link":"https://api.wog.ua/fuel_stations/987","city":"Одеса","coordinates":{"longitude":30.6957,"latitude":46.469899},"name":"м. Одеса, вул. Бугаївська, 58/2 (гіпермаркет «Ідеал»)","id":987},{"link":"https://api.wog.ua/fuel_stations/988","city":"Южне","coordinates":{"longitude":31.10741,"latitude":46.62693},"name":"м. Южне, вул. Будівельників, 22, р-н ринку","id":988},{"link":"https://api.wog.ua/fuel_stations/989","city":"Одеса","coordinates":{"longitude":30.734416,"latitude":46.394389},"name":"м. Одеса, вул. Люстдорфська дорога, 174 Б","id":989},{"link":"https://api.wog.ua/fuel_stations/990","city":"Запоріжжя","coordinates":{"longitude":35.146144,"latitude":47.87909},"name":"м. Запоріжжя, вул. Зразкова, 2б","id":990},{"link":"https://api.wog.ua/fuel_stations/991","city":"Стебник","coordinates":{"longitude":23.513783,"latitude":49.315089},"name":"Дрогобицький р-н, с.Болехівці, розвилка Львів-Трускавець і Дрогобич-Стебник","id":991},{"link":"https://api.wog.ua/fuel_stations/992","city":"Садки","coordinates":{"longitude":28.482066,"latitude":50.306734},"name":"Житомирський р-н, с. Садки, а/т Київ-Чоп, 154 км","id":992},{"link":"https://api.wog.ua/fuel_stations/994","city":"Миколаїв","coordinates":{"longitude":32.031928,"latitude":46.895765},"name":"м. Миколаїв, вул. Липова, 40","id":994},{"link":"https://api.wog.ua/fuel_stations/995","city":"Криве Озеро","coordinates":{"longitude":30.309428,"latitude":47.97328},"name":"Миколаївська обл., смт Криве Озеро, а/д \"Київ -Одеса\", 293 км (праворуч)","id":995},{"link":"https://api.wog.ua/fuel_stations/996","city":"Верхнє Синьовидне","coordinates":{"longitude":23.564809,"latitude":49.07195},"name":"Сколівський р-н, с. Дубина 633 км + 850 а/д Київ-Чоп","id":996},{"link":"https://api.wog.ua/fuel_stations/997","city":"Криве Озеро","coordinates":{"longitude":30.310424,"latitude":47.973109},"name":"Миколаївська обл., смт Криве Озеро, а/д \"Київ -Одеса\", 293 км (ліворуч)","id":997},{"link":"https://api.wog.ua/fuel_stations/998","city":"Вінниця","coordinates":{"longitude":28.552516,"latitude":49.222818},"name":"Вінницький р-н, с.Вінницькі Хутори, вул.Немирівське шосе,92Б","id":998},{"link":"https://api.wog.ua/fuel_stations/1001","city":"Київ","coordinates":{"longitude":30.585866,"latitude":50.49499},"name":"м.Київ, пр-т Ватутіна, 16, перехрестя Ватутіна і Перова","id":1001},{"link":"https://api.wog.ua/fuel_stations/1002","city":"Бровари","coordinates":{"longitude":30.7910299,"latitude":50.524382},"name":"м.Бровари, вул. Київська, 331, траса Київ - Чернігів, ліворуч, район ТРК \"Термінал\"","id":1002},{"link":"https://api.wog.ua/fuel_stations/1003","city":"Полтава","coordinates":{"longitude":34.585605,"latitude":49.578159},"name":"м. Полтава, пр-т Миру, 8а","id":1003},{"link":"https://api.wog.ua/fuel_stations/1004","city":"Кобеляки","coordinates":{"longitude":34.204516,"latitude":49.145501},"name":"м.Кобеляки,вул.Дніпрпетровська,11  (автодорога Р-52 Днепропетровск-Царичанка-Кобеляки-Решетилівка)","id":1004},{"link":"https://api.wog.ua/fuel_stations/1005","city":"Червоноград","coordinates":{"longitude":24.223483,"latitude":50.391404},"name":"м. Червоноград, вул. Промислова, 2а","id":1005},{"link":"https://api.wog.ua/fuel_stations/1006","city":"Угерсько","coordinates":{"longitude":23.889569,"latitude":49.298689},"name":"Стрийський р-н, с.Добряни","id":1006},{"link":"https://api.wog.ua/fuel_stations/1007","city":"Солонка","coordinates":{"longitude":24.014683,"latitude":49.734753},"name":"Пустомитівський р-н, с.Ковирі","id":1007},{"link":"https://api.wog.ua/fuel_stations/1008","city":"Дрогобич","coordinates":{"longitude":23.549372,"latitude":49.353623},"name":"м Дрогобич, вул. Стрийська, 443","id":1008},{"link":"https://api.wog.ua/fuel_stations/1010","city":"Житомир","coordinates":{"longitude":28.646731,"latitude":50.276057},"name":"м. Житомир, м-н Визволення 11","id":1010},{"link":"https://api.wog.ua/fuel_stations/1013","city":"Запоріжжя","coordinates":{"longitude":35.010534,"latitude":47.867514},"name":"Запорізька обл., м.Запоріжжя, вул.Зачиняєва, 21-а","id":1013},{"link":"https://api.wog.ua/fuel_stations/1014","city":"Львів","coordinates":{"longitude":24.045154,"latitude":49.817031},"name":"м. Львів, вул. В. Стуса, 57-а","id":1014},{"link":"https://api.wog.ua/fuel_stations/1015","city":"Шостаки","coordinates":{"longitude":34.434918,"latitude":49.570961},"name":"Полтавський р-н, с.Супрунівка. вул..Київська,4В  (автодорога Київ-Харків-Довжанський 333 км)","id":1015},{"link":"https://api.wog.ua/fuel_stations/1016","city":"Миргород","coordinates":{"longitude":33.594685,"latitude":49.994016},"name":"м.Миргород, вул.Комишанська,141(автодорога Р-42 Лубни-Миргород-Опішня)","id":1016},{"link":"https://api.wog.ua/fuel_stations/1017","city":"Суми","coordinates":{"longitude":34.772282,"latitude":50.903217},"name":"м.Суми, вул. Степана Бандери 105","id":1017},{"link":"https://api.wog.ua/fuel_stations/1018","city":"Одеса","coordinates":{"longitude":30.686745,"latitude":46.465625},"name":"м. Одеса, вул. Дальницька, 55 (2-а Застава)","id":1018},{"link":"https://api.wog.ua/fuel_stations/1019","city":"Одеса","coordinates":{"longitude":30.73081,"latitude":46.406087},"name":"м. Одеса, вул. Люстдорфська дор., 137","id":1019},{"link":"https://api.wog.ua/fuel_stations/1021","city":"Старовойтове","coordinates":{"longitude":23.849472,"latitude":51.195873},"name":"Любомльський р-н, с. Старовойтове, вул. Прикордонників, 34 зліва","id":1021},{"link":"https://api.wog.ua/fuel_stations/1022","city":"Старовойтове","coordinates":{"longitude":23.849037,"latitude":51.196682},"name":"Любомльський р-н, с. Старовойтове, вул. Прикордонників, 35 справа","id":1022},{"link":"https://api.wog.ua/fuel_stations/1023","city":"Одеса","coordinates":{"longitude":30.701492,"latitude":46.477278},"name":"м. Одеса, вул. М. Грушевського, 6, (Автовокзал)","id":1023},{"link":"https://api.wog.ua/fuel_stations/1024","city":"Харків","coordinates":{"longitude":36.161014,"latitude":49.973224},"name":"м. Харків, вул. Чуваська, буд. 1","id":1024},{"link":"https://api.wog.ua/fuel_stations/1025","city":"Піщанка","coordinates":{"longitude":35.441696,"latitude":49.38956},"name":"Красноградський р-н, с.Піщанка, вул. Енгельса, 144 (а/д Е105;М-18;Р-11;Р-51)","id":1025},{"link":"https://api.wog.ua/fuel_stations/1027","city":"Прилуки","coordinates":{"longitude":32.395297,"latitude":50.58806},"name":"м. Прилуки, вул. Котляревського, 101","id":1027},{"link":"https://api.wog.ua/fuel_stations/1028","city":"Миколаїв","coordinates":{"longitude":32.056368,"latitude":46.955096},"name":"м.Миколаїв,вул.Херсонське шосе,50-Б","id":1028},{"link":"https://api.wog.ua/fuel_stations/1029","city":"Кіпті","coordinates":{"longitude":31.153887,"latitude":51.059247},"name":"Чернігівська обл.Козилецький р-н, с.Кіпті, вул.Слов'янська,53а","id":1029},{"link":"https://api.wog.ua/fuel_stations/1031","city":"Зайчівське","coordinates":{"longitude":32.105167,"latitude":47.034929},"name":"Миколаївська обл., Жовтневий р-н, с.Зайчевське, вул. Дорожня,3, Північно-східна об'їзна дорога Т-15-18 (кафе”Інгул”)","id":1031},{"link":"https://api.wog.ua/fuel_stations/1032","city":"Ковалівка","coordinates":{"longitude":32.111596,"latitude":47.672328},"name":"Миколаївська обл.,Єланецький р-н, с. Возсіятське, вул. Кирова,70","id":1032},{"link":"https://api.wog.ua/fuel_stations/1033","city":"Баштанка","coordinates":{"longitude":32.43658,"latitude":47.421275},"name":"Миколаївська обл., Баштанський р-н, м. Баштанка,  а/д Н-11 “Дніпропетровськ -Миколаїв”  259 км","id":1033},{"link":"https://api.wog.ua/fuel_stations/1034","city":"Миколаїв","coordinates":{"longitude":32.032067,"latitude":46.963788},"name":"м.Миколаїв,вул.Луначарського,7","id":1034},{"link":"https://api.wog.ua/fuel_stations/1037","city":"Нова Одеса","coordinates":{"longitude":31.790204,"latitude":47.289792},"name":"Миколаївська обл., м. Нова Одеса, вул. Леніна,50","id":1037},{"link":"https://api.wog.ua/fuel_stations/1039","city":"Южноукраїнськ","coordinates":{"longitude":31.19437,"latitude":47.817047},"name":"Миколаївська обл., м.Южноукраїнськ, Комунальна Зона, 18 , а/д Р06","id":1039},{"link":"https://api.wog.ua/fuel_stations/1043","city":"Біла Церква","coordinates":{"longitude":30.04871,"latitude":49.816098},"name":"Київска обл. Білоцерківський район с. Фурси, вул. Фурсівська, квартал ІІ, 2-А. (м.Біла Церква, вул. Сквирське шосе, 272, на виїзді з міста в бік Сквири, а/д Біла Церква - Вінниця, праворуч)","id":1043},{"link":"https://api.wog.ua/fuel_stations/1044","city":"Кагарлик","coordinates":{"longitude":30.844739,"latitude":49.840357},"name":"м.Кагарлик, вул. Жовтнева, 56, на виїзді з міста в бік Сміли, траса Київ - Луганськ, праворуч","id":1044},{"link":"https://api.wog.ua/fuel_stations/1045","city":"Мирне","coordinates":{"longitude":31.616761,"latitude":46.92954},"name":"Миколаївська обл.,Миколаївський р-н, с. Нечаяне, вул.Одеська, 2-В , Очаківський поворот, 105 км траси М-14 Одеса-Мелітополь , ліворуч","id":1045},{"link":"https://api.wog.ua/fuel_stations/1046","city":"Полтава","coordinates":{"longitude":34.492508,"latitude":49.58923},"name":"м. Полтава, вул. В. Тирнівська, 46","id":1046},{"link":"https://api.wog.ua/fuel_stations/1047","city":"Первомайськ","coordinates":{"longitude":30.920786,"latitude":48.056131},"name":"Миколаївська обл., Первомайський  р-н, с. Мигия, вул. Первомайська, 112-А","id":1047},{"link":"https://api.wog.ua/fuel_stations/1048","city":"Казанка","coordinates":{"longitude":32.833732,"latitude":47.820538},"name":"Миколаївська обл., смт Казанка, вул. Васляєва, 64-Б","id":1048},{"link":"https://api.wog.ua/fuel_stations/1049","city":"Харків","coordinates":{"longitude":36.26183,"latitude":49.93855},"name":"м. Харків, пр-т Гагаріна, 183 а (готель \"Дружба\")","id":1049},{"link":"https://api.wog.ua/fuel_stations/1050","city":"Харків","coordinates":{"longitude":36.272552,"latitude":49.986236},"name":"м. Харків, вул. Броненосця \"Потемкіна\", 4 (універмаг \"Харків\")","id":1050},{"link":"https://api.wog.ua/fuel_stations/1053","city":"Запоріжжя","coordinates":{"longitude":35.245201,"latitude":47.848533},"name":"м. Запоріжжя, вул. , Стартова, буд. 5 б(Віражна)","id":1053},{"link":"https://api.wog.ua/fuel_stations/1054","city":"Запоріжжя","coordinates":{"longitude":34.980736,"latitude":47.890857},"name":"м. Запоріжжя, Сонячне шосе, 55","id":1054},{"link":"https://api.wog.ua/fuel_stations/1055","city":"Запоріжжя","coordinates":{"longitude":35.228648,"latitude":47.842461},"name":"м.Запоріжжя, вул.Чарівна,64-а","id":1055},{"link":"https://api.wog.ua/fuel_stations/1056","city":"Сміла","coordinates":{"longitude":31.866683,"latitude":49.254656},"name":"м. Сміла, вул. Комунарська, 141, об'їзна, біля роз'їзду Черкаси – Дніпропетровськ","id":1056},{"link":"https://api.wog.ua/fuel_stations/1057","city":"Черкаси","coordinates":{"longitude":32.053546,"latitude":49.433645},"name":"м.Черкаси, вул.Смілянська 78/4","id":1057},{"link":"https://api.wog.ua/fuel_stations/1059","city":"Тальне","coordinates":{"longitude":30.708849,"latitude":48.910044},"name":"Тальнівський р-н, с. Соколівочка, а/д Н-16 Золотоноша-Черкаси-Сміла-Умань, км 174+59 м.(ліворуч)","id":1059},{"link":"https://api.wog.ua/fuel_stations/1060","city":"Одеса","coordinates":{"longitude":30.739214,"latitude":46.449692},"name":"м. Одеса, Фонтанська дорога, 2а, (Телецентр)","id":1060},{"link":"https://api.wog.ua/fuel_stations/1061","city":"Ізмаїл","coordinates":{"longitude":28.852759,"latitude":45.386556},"name":"м. Ізмаїл, пр.Суворова, 378","id":1061},{"link":"https://api.wog.ua/fuel_stations/1062","city":"Одеса","coordinates":{"longitude":30.678548,"latitude":46.455333},"name":"м. Одеса, Овідіопольське ш.3/1 (Селекційніий ин-т)","id":1062},{"link":"https://api.wog.ua/fuel_stations/1063","city":"Одеса","coordinates":{"longitude":30.775188,"latitude":46.585838},"name":"Одеська обл.,с. Корсунці,  вул. Степова, 1Б","id":1063},{"link":"https://api.wog.ua/fuel_stations/1064","city":"Одеса","coordinates":{"longitude":30.731452,"latitude":46.531492},"name":"м. Одеса, вул. Атамана Головатого, 161 (пл. Ярмарочна)","id":1064},{"link":"https://api.wog.ua/fuel_stations/1065","city":"Ілічанка","coordinates":{"longitude":30.808698,"latitude":46.59917},"name":"Одеська область Комінтернівський р-н, с/рада    Фонтанська , автодорога Одеса-Мелітополь-Новоазовськ, 18км+100м (пр. Добровольського)","id":1065},{"link":"https://api.wog.ua/fuel_stations/1066","city":"Маяки","coordinates":{"longitude":30.28506,"latitude":46.417919},"name":"Біляївський р-н, с. Маяки, тр. Одеса-Рені, 38км","id":1066},{"link":"https://api.wog.ua/fuel_stations/1067","city":"Коростень","coordinates":{"longitude":28.654075,"latitude":50.955991},"name":"м.Коростень, вул.Жовтнева, 26","id":1067},{"link":"https://api.wog.ua/fuel_stations/1068","city":"Одеса","coordinates":{"longitude":30.63689,"latitude":46.478434},"name":"м. Одеса, Тираспольське шосе 15, (\"Ленпоселок\")","id":1068},{"link":"https://api.wog.ua/fuel_stations/1069","city":"Кучурган","coordinates":{"longitude":29.994419,"latitude":46.734432},"name":"Роздільнянський р-н, тр. Одеса-Кишинів, 68 км, с.Кучурган, вул. Одеська,12","id":1069},{"link":"https://api.wog.ua/fuel_stations/1070","city":"Одеса","coordinates":{"longitude":30.627456,"latitude":46.508364},"name":"Біляївський р-н, с/рада Усатівська,автодорога Київ-Одеса,462км+325м (перед ТЦ Нова лінія)","id":1070},{"link":"https://api.wog.ua/fuel_stations/1071","city":"Одеса","coordinates":{"longitude":30.697053,"latitude":46.43378},"name":"м. Одеса, вул. І.Рабіна, 24 (ринок «Восход»)","id":1071},{"link":"https://api.wog.ua/fuel_stations/1072","city":"Тараща","coordinates":{"longitude":30.496606,"latitude":49.571672},"name":"м.Тараща, вул.Білоцерківська, 63Б, в'їзд у місто з боку Білої Церкви, праворуч","id":1072},{"link":"https://api.wog.ua/fuel_stations/1074","city":"Фастів","coordinates":{"longitude":29.956555,"latitude":50.065917},"name":"м.Фастів, вул. Якубовського, 62, в'їзд у Фастів з боку траси Київ-Одеса, ліворуч","id":1074},{"link":"https://api.wog.ua/fuel_stations/1075","city":"Клевань","coordinates":{"longitude":26.043872,"latitude":50.73005},"name":"Рівненська обл., с. Зоря , вул. Жовтнева, 9","id":1075},{"link":"https://api.wog.ua/fuel_stations/1076","city":"Рівне","coordinates":{"longitude":26.286006,"latitude":50.637551},"name":"Рівненська обл., с. Бармаки, вул. Польова, буд.2","id":1076},{"link":"https://api.wog.ua/fuel_stations/1077","city":"Рівне","coordinates":{"longitude":26.197425,"latitude":50.608108},"name":"Рівненська обл., м. Рівне, вул. Дубенська (вул. Паризької комуни) буд. 163А","id":1077},{"link":"https://api.wog.ua/fuel_stations/1080","city":"Вилок","coordinates":{"longitude":22.847357,"latitude":48.111049},"name":"Виноградівський р-н, с.Вілок,вул.Виноградівська,30","id":1080},{"link":"https://api.wog.ua/fuel_stations/1081","city":"Чинадійово","coordinates":{"longitude":22.797993,"latitude":48.481821},"name":"Мукачівський р-он, смт.Чинадієво, вул.Садова,94б (траса Київ-Чоп, 765км+400м, зліва)","id":1081},{"link":"https://api.wog.ua/fuel_stations/1082","city":"Хуст","coordinates":{"longitude":23.310556,"latitude":48.197892},"name":"м. Хуст,  Хустський р-н, регіональна автомобільна дорога Р-03 Мукачево – Ів-Франківськ - Рогатин – Львів, буд. б/н.","id":1082},{"link":"https://api.wog.ua/fuel_stations/1083","city":"Ужгород","coordinates":{"longitude":22.276015,"latitude":48.610782},"name":"м. Ужгород, вул. Заньковецької, 48","id":1083},{"link":"https://api.wog.ua/fuel_stations/1084","city":"Ужгород","coordinates":{"longitude":22.289341,"latitude":48.608123},"name":"м. Ужгород, вул. Минайська, 16 б","id":1084},{"link":"https://api.wog.ua/fuel_stations/1085","city":"Ужгород","coordinates":{"longitude":22.307073,"latitude":48.636516},"name":"м. Ужгород, вул. Тімірязева, 15 б","id":1085},{"link":"https://api.wog.ua/fuel_stations/1086","city":"Ужгород","coordinates":{"longitude":22.273822,"latitude":48.604134},"name":"м. Ужгород, 8 Березня, 46","id":1086},{"link":"https://api.wog.ua/fuel_stations/1087","city":"Павшино","coordinates":{"longitude":22.693569,"latitude":48.4125},"name":"Мукачівський р-н, с. Павшино, вул. Берегівська, б/н","id":1087},{"link":"https://api.wog.ua/fuel_stations/1088","city":"Великий Березний","coordinates":{"longitude":22.450773,"latitude":48.880477},"name":"смт. Великій Березний, вул. Штефаника, 124","id":1088},{"link":"https://api.wog.ua/fuel_stations/1089","city":"Нересниця","coordinates":{"longitude":23.771356,"latitude":48.112971},"name":"Тячівський р-н, с. Нересниця, вул. Заводська, 35 (38)","id":1089},{"link":"https://api.wog.ua/fuel_stations/1090","city":"Чоп","coordinates":{"longitude":22.184155,"latitude":48.438297},"name":"м. Чоп, а/д Київ-Чоп 828км+600м ліворуч","id":1090},{"link":"https://api.wog.ua/fuel_stations/1091","city":"Кропивницький","coordinates":{"longitude":32.270997,"latitude":48.481393},"name":"м. Кіровоград, вул. 40-річчя Перемоги, 105а","id":1091},{"link":"https://api.wog.ua/fuel_stations/1092","city":"Кропивницький","coordinates":{"longitude":32.208678,"latitude":48.491551},"name":"м. Кіровоград, вул. Героїв України, 22б","id":1092},{"link":"https://api.wog.ua/fuel_stations/1094","city":"Хмельницький","coordinates":{"longitude":27.018809,"latitude":49.444864},"name":"м. Хмельницький, вул.  Старокостянтинівське шосе, 2/1","id":1094},{"link":"https://api.wog.ua/fuel_stations/1096","city":"Хмельницький","coordinates":{"longitude":26.965993,"latitude":49.457174},"name":"Хмельницький р-н , с/рада Грузевицька,вул.Західноокружна,буд 1/а","id":1096},{"link":"https://api.wog.ua/fuel_stations/1097","city":"Львів","coordinates":{"longitude":24.024392,"latitude":49.868965},"name":"м. Львів, вул. Мазепи, 7","id":1097},{"link":"https://api.wog.ua/fuel_stations/1098","city":"Борислав","coordinates":{"longitude":23.442349,"latitude":49.288676},"name":"м. Борислав, вул.Коваліва, 46 а","id":1098},{"link":"https://api.wog.ua/fuel_stations/1099","city":"Сілець","coordinates":{"longitude":24.187798,"latitude":50.310878},"name":"Львівська обл., Сокальський р-н., с. Сілець, вул. Перехрестя, 2","id":1099},{"link":"https://api.wog.ua/fuel_stations/1100","city":"Великосілки","coordinates":{"longitude":24.43922,"latitude":49.979062},"name":"Камянка-Бузький р-н  с.Великосілки","id":1100},{"link":"https://api.wog.ua/fuel_stations/1101","city":"Бурштин","coordinates":{"longitude":24.631812,"latitude":49.26723},"name":"Галицький р-н, м. Бурштин, вул. С.Бандери, 113а","id":1101},{"link":"https://api.wog.ua/fuel_stations/1102","city":"Новоселиця","coordinates":{"longitude":23.91954,"latitude":48.939582},"name":"Долинський р-н., смт. Вигода, вул. Д. Галицького, 12","id":1102},{"link":"https://api.wog.ua/fuel_stations/1103","city":"Делятин","coordinates":{"longitude":24.606706,"latitude":48.498085},"name":"Надвірнянський р-н, смт.Делятин, вул.16 Липня,11б","id":1103},{"link":"https://api.wog.ua/fuel_stations/1104","city":"Івано-Франківськ","coordinates":{"longitude":24.687516,"latitude":48.902734},"name":"м. Івано-Франківськ, вул. Довженка,21а","id":1104},{"link":"https://api.wog.ua/fuel_stations/1105","city":"Долина","coordinates":{"longitude":23.974542,"latitude":48.979519},"name":"м. Долина, вул. Б.Хмельницького, 25 В","id":1105},{"link":"https://api.wog.ua/fuel_stations/1106","city":"Калуш","coordinates":{"longitude":24.350204,"latitude":49.008609},"name":"м. Калуш, вул. Косоріза, 54","id":1106},{"link":"https://api.wog.ua/fuel_stations/1107","city":"Калуш","coordinates":{"longitude":24.342653,"latitude":49.045405},"name":"Івано-Франківська обл.,м.Калуш,вул. Хмельницького Б.,буд. 78а","id":1107},{"link":"https://api.wog.ua/fuel_stations/1108","city":"Микитинці","coordinates":{"longitude":24.771296,"latitude":48.910517},"name":"м. Івано-Франківськ, вул. Тисменецька, 248а","id":1108},{"link":"https://api.wog.ua/fuel_stations/1109","city":"Тисмениця","coordinates":{"longitude":24.851293,"latitude":48.883797},"name":"Івано-Франківська обл., Тисменицький р., м. Тисмениця, вул. Левицького К.(вул. 17 Вересня),  буд.114","id":1109},{"link":"https://api.wog.ua/fuel_stations/1110","city":"Мацьківці","coordinates":{"longitude":26.876457,"latitude":49.402708},"name":"Хмельницький р-н.,с/рада Шаровечківська, автодорога Стрий-Тернопіль-Кіровоград-Знам'янка251км+620м","id":1110},{"link":"https://api.wog.ua/fuel_stations/1111","city":"Опарипси","coordinates":{"longitude":25.213087,"latitude":50.122768},"name":"Радивилівський р-н,с.Опарипси, вул.Бродівська,96а","id":1111},{"link":"https://api.wog.ua/fuel_stations/1112","city":"Дрогобич","coordinates":{"longitude":23.536477,"latitude":49.356947},"name":"м Дрогобич, вул. Володимира Великого, 7/3","id":1112},{"link":"https://api.wog.ua/fuel_stations/1113","city":"Дрогобич","coordinates":{"longitude":23.489102,"latitude":49.362077},"name":"м. Дрогобич, вул. Самбірська, 51","id":1113},{"link":"https://api.wog.ua/fuel_stations/1114","city":"Богородчани","coordinates":{"longitude":24.551414,"latitude":48.820277},"name":"Богородчанський р-н, с.Скобичівка,вул. Зелена, 51","id":1114},{"link":"https://api.wog.ua/fuel_stations/1115","city":"Заболотів","coordinates":{"longitude":25.305208,"latitude":48.472523},"name":"Снятинський р-н, смт. Заболотів, вул. Грушевського, 125 Б","id":1115},{"link":"https://api.wog.ua/fuel_stations/1116","city":"Косів","coordinates":{"longitude":25.119723,"latitude":48.310481},"name":"Косовський р-н, с. Смодна, вул. Незалежності, 44а","id":1116},{"link":"https://api.wog.ua/fuel_stations/1117","city":"Раківчик","coordinates":{"longitude":24.974706,"latitude":48.580339},"name":"Коломийський р-н, с. Раківчик, вул. Прикарпатська, 10а","id":1117},{"link":"https://api.wog.ua/fuel_stations/1118","city":"Угринів","coordinates":{"longitude":24.674324,"latitude":48.954908},"name":"Тисменицький р-н, с. Угринів, вул. Калуське шосе, 2д","id":1118},{"link":"https://api.wog.ua/fuel_stations/1119","city":"Тязів","coordinates":{"longitude":24.700283,"latitude":49.005368},"name":"Тисменицький р-н, с. Ямниця, вул. Галицька, 64","id":1119},{"link":"https://api.wog.ua/fuel_stations/1120","city":"Отинія","coordinates":{"longitude":24.853006,"latitude":48.755648},"name":"Коломийський р-н, смт. Отинія, вул. Галицька, 123а","id":1120},{"link":"https://api.wog.ua/fuel_stations/1121","city":"Берестечко","coordinates":{"longitude":25.098467,"latitude":50.368594},"name":"Горохівський р-н, с. Кутрів,  вул. Лесі Українки, 1а.","id":1121},{"link":"https://api.wog.ua/fuel_stations/1122","city":"Кадище","coordinates":{"longitude":25.856489,"latitude":50.769894},"name":"Ківерцівський р-н, с. Кадище, Цуманське перехрестя, 35 км шосе Луцьк-Рівне-Київ","id":1122},{"link":"https://api.wog.ua/fuel_stations/1123","city":"Турійськ","coordinates":{"longitude":24.512996,"latitude":51.077152},"name":"м. Турійськ, вул. Володимирська, 45","id":1123},{"link":"https://api.wog.ua/fuel_stations/1124","city":"Рокині","coordinates":{"longitude":25.240037,"latitude":50.837861},"name":"Луцький р-н, с.Брище, 10 км шосе Луцьк-Ковель","id":1124},{"link":"https://api.wog.ua/fuel_stations/1125","city":"Вишнів","coordinates":{"longitude":24.045431,"latitude":51.202421},"name":"Любомльський р-н, с. Вишнів, 50 км шосе Ковель-Ягодин","id":1125},{"link":"https://api.wog.ua/fuel_stations/1126","city":"Володимир","coordinates":{"longitude":24.362575,"latitude":50.825951},"name":"м. Володимир-Волинський, вул.Луцька, 192","id":1126},{"link":"https://api.wog.ua/fuel_stations/1127","city":"Володимир","coordinates":{"longitude":24.287407,"latitude":50.856608},"name":"м. Володимир-Волинський, вул. Устилузька, 140","id":1127},{"link":"https://api.wog.ua/fuel_stations/1128","city":"Камінь-Каширський","coordinates":{"longitude":24.971668,"latitude":51.615069},"name":"м.Камінь - Каширський, вул. Ватутіна, 6","id":1128},{"link":"https://api.wog.ua/fuel_stations/1129","city":"Ковель","coordinates":{"longitude":24.759529,"latitude":51.196647},"name":"м. Ковель, вул. Луцька, 29","id":1129},{"link":"https://api.wog.ua/fuel_stations/1130","city":"Луцьк","coordinates":{"longitude":25.3584,"latitude":50.75638},"name":"м.Луцьк, пр-кт Соборності, 45, біля гіпермаркета \"Там-Там\"","id":1130},{"link":"https://api.wog.ua/fuel_stations/1131","city":"Любешів","coordinates":{"longitude":25.507723,"latitude":51.777563},"name":" Волинська обл., Любешівський р., смт. Любешiв, вул.Червоноармійська (вул. Червоної Армії), буд. 76","id":1131},{"link":"https://api.wog.ua/fuel_stations/1132","city":"Маневичі","coordinates":{"longitude":25.52224,"latitude":51.287419},"name":"смт. Маневичі, вул. Луцька, 11","id":1132},{"link":"https://api.wog.ua/fuel_stations/1133","city":"Ратне","coordinates":{"longitude":24.53307,"latitude":51.661393},"name":"смт Ратне, вул. Центральна, 1 а","id":1133},{"link":"https://api.wog.ua/fuel_stations/1134","city":"Кам'янка","coordinates":{"longitude":32.113082,"latitude":49.049517},"name":"м. Кам'янка, вул. Шевченка, 51 а","id":1134},{"link":"https://api.wog.ua/fuel_stations/1135","city":"Тереблече","coordinates":{"longitude":26.042004,"latitude":48.00939},"name":"Чернівецька обл. Глибоцький р-н, с. Тереблече, вул. Головна, 134","id":1135},{"link":"https://api.wog.ua/fuel_stations/1136","city":"Чернівці","coordinates":{"longitude":25.92237,"latitude":48.31627},"name":"м.Чернівці, вул. Хотинська, 3б","id":1136},{"link":"https://api.wog.ua/fuel_stations/1137","city":"Чернівці","coordinates":{"longitude":25.92565,"latitude":48.26884},"name":"м.Чернівці, вул.Героїв Майдану, 184-а","id":1137},{"link":"https://api.wog.ua/fuel_stations/1138","city":"Берегове","coordinates":{"longitude":22.642897,"latitude":48.223614},"name":"м. Берегово, вул. Мукачівська, 190","id":1138},{"link":"https://api.wog.ua/fuel_stations/1139","city":"Вінниця","coordinates":{"longitude":28.399957,"latitude":49.239766},"name":"Вінницький р-н, с. Зарванці, вул. Молодіжна, 29","id":1139},{"link":"https://api.wog.ua/fuel_stations/1140","city":"Мукачево","coordinates":{"longitude":22.684961,"latitude":48.452046},"name":"Мукачівський р-он, с. Клячаново, вул. Мукачівська, 129","id":1140},{"link":"https://api.wog.ua/fuel_stations/1141","city":"Ужгород","coordinates":{"longitude":22.265725,"latitude":48.612197},"name":"м. Ужгород, вул.Перемоги, 152/2 (вул.Капушанська)","id":1141},{"link":"https://api.wog.ua/fuel_stations/1142","city":"Чоп","coordinates":{"longitude":22.184035,"latitude":48.439159},"name":"Ужгородський р-н, с. Соломонове, автодорога Київ-Чоп, 828км+600м (праворуч), біля митного переходу","id":1142},{"link":"https://api.wog.ua/fuel_stations/1143","city":"Мукачево","coordinates":{"longitude":22.752854,"latitude":48.436294},"name":"Мукачівский р-н., с. В. Коропець,вул.Мукачівська, 2а (Підгірна)","id":1143},{"link":"https://api.wog.ua/fuel_stations/1144","city":"Холмок","coordinates":{"longitude":22.271579,"latitude":48.572245},"name":"Ужгородський р-он, с. Розівка, вул.Свободи, 49, тр. Ужгород-Чоп (Холмок)","id":1144},{"link":"https://api.wog.ua/fuel_stations/1145","city":"Буча","coordinates":{"longitude":30.194545,"latitude":50.546158},"name":"Киïвcькa oбл., м.Буча, вул.Нове шосе, 81","id":1145},{"link":"https://api.wog.ua/fuel_stations/1146","city":"Київ","coordinates":{"longitude":30.634418,"latitude":50.461588},"name":"м Київ, пр.Броварський, 16а","id":1146},{"link":"https://api.wog.ua/fuel_stations/1147","city":"Тячів","coordinates":{"longitude":23.58781,"latitude":48.00969},"name":"м. Тячів, вул. Незалежності, 90","id":1147},{"link":"https://api.wog.ua/fuel_stations/1148","city":"Київ","coordinates":{"longitude":30.393741,"latitude":50.416279},"name":"м.Київ, вул.Сім'ї Сосніних, 17-А","id":1148},{"link":"https://api.wog.ua/fuel_stations/1150","city":"Слобожанське","coordinates":{"longitude":35.091526,"latitude":48.547376},"name":"Дніпропетровська обл, Дніпропетровський р-н, с.м.т. Ювілейне, вул.Ім.Бабенка І.А, 8 + Restorio","id":1150},{"link":"https://api.wog.ua/fuel_stations/1151","city":"Кропивницький","coordinates":{"longitude":32.243693,"latitude":48.507246},"name":".м.Кіровоград, вул.Габдрахманова,буд.46","id":1151},{"link":"https://api.wog.ua/fuel_stations/1152","city":"Павлоград","coordinates":{"longitude":35.819569,"latitude":48.535935},"name":"Дніпропетровська обл, Павлоградський р-н, Привовчанська с/р, Комплекс будівель та споруд №1","id":1152},{"link":"https://api.wog.ua/fuel_stations/1153","city":"Хорол","coordinates":{"longitude":33.30082,"latitude":49.792473},"name":"Полтавська обл.,Хорольський р-н., с.Глибока Долина, вул.Глибокодолинська, 27а","id":1153},{"link":"https://api.wog.ua/fuel_stations/1154","city":"Бердичів","coordinates":{"longitude":28.587862,"latitude":49.911925},"name":"м.Бердичів, вул.Житомирська, 93а","id":1154},{"link":"https://api.wog.ua/fuel_stations/1155","city":"Річки","coordinates":{"longitude":23.604304,"latitude":50.259263},"name":"Жовківський р-н, територія Річківської с/р, а/д М09 Львів-Рава-Руська, 66 км+ Restorio","id":1155},{"link":"https://api.wog.ua/fuel_stations/1158","city":"Хмельницький","coordinates":{"longitude":26.962705,"latitude":49.36104},"name":"Хмельницька обл., Н03 Ружичанська с.р., а/д Житомир-Чернівці, 192км+60м.+ Restorio","id":1158},{"link":"https://api.wog.ua/fuel_stations/1160","city":"Вінниця","coordinates":{"longitude":28.405718,"latitude":49.231391},"name":"м.Вінниця, вул.Василя Порика, 28","id":1160},{"link":"https://api.wog.ua/fuel_stations/1161","city":"Немирів","coordinates":{"longitude":28.849248,"latitude":48.950105},"name":"Вінницька обл., м.Немирів, вул.Гайсинське шосе, 4 +Restorio","id":1161},{"link":"https://api.wog.ua/fuel_stations/1164","city":"Тереблече","coordinates":{"longitude":26.036702,"latitude":48.013222},"name":"Чернівецька обл. Глибоцький р-н, с. Тереблече, вул. Головна, 151+Restorio","id":1164},{"link":"https://api.wog.ua/fuel_stations/1165","city":"Нерубайське","coordinates":{"longitude":30.610226,"latitude":46.528149},"name":"Одеська обл., Біляївський р-н, Нерубайська с.р., а/д Київ-Одеса, 461 км.","id":1165},{"link":"https://api.wog.ua/fuel_stations/1166","city":"Летичів","coordinates":{"longitude":27.580553,"latitude":49.386866},"name":"Хмельницька обл., Летичівський р-н, Руднянська с/р, а/д М-12 Стрий-Тернопіль-Кіровоград-Знам'янка 311км+750м.+Restorio","id":1166},{"link":"https://api.wog.ua/fuel_stations/1167","city":"Дніпро","coordinates":{"longitude":35.036819,"latitude":48.521529},"name":"м. Дніпро, вул. Лисиченко Марії, буд. 6","id":1167},{"link":"https://api.wog.ua/fuel_stations/1168","city":"Дніпро","coordinates":{"longitude":35.063824,"latitude":48.486709},"name":"м. Дніпропетровськ пр. ім. \"Газети Правди\" 2г","id":1168},{"link":"https://api.wog.ua/fuel_stations/1169","city":"Дніпро","coordinates":{"longitude":35.089998,"latitude":48.540462},"name":"Комплекс буд і спор. Тер. Ювілейної с/р","id":1169},{"link":"https://api.wog.ua/fuel_stations/1170","city":"Дніпро","coordinates":{"longitude":34.99224,"latitude":48.519116},"name":"м. Дніпропетровськ вул. Передова 263","id":1170},{"link":"https://api.wog.ua/fuel_stations/1171","city":"Дніпро","coordinates":{"longitude":35.0623,"latitude":48.487162},"name":"м. Дніпропетровськ пр. ім. \"Газети Правди\" 1-і","id":1171},{"link":"https://api.wog.ua/fuel_stations/1173","city":"Пісочин","coordinates":{"longitude":36.06801,"latitude":49.955029},"name":"Харьковская обл., Харьковский район, с. Пісочин, вул Пушкіна, (р-н повороту до с. Рай-Оленівка, вздо","id":1173},{"link":"https://api.wog.ua/fuel_stations/1174","city":"Дніпро","coordinates":{"longitude":35.02126,"latitude":48.482267},"name":"м. Дніпропетровськ, вул. Набережна Заводська, 3","id":1174},{"link":"https://api.wog.ua/fuel_stations/1181","city":"Харків","coordinates":{"longitude":36.292283,"latitude":49.976101},"name":"м.Харків, пр-т. Московський 187/2","id":1181},{"link":"https://api.wog.ua/fuel_stations/1182","city":"Підгірне","coordinates":{"longitude":24.185437,"latitude":49.8163205},"name":"Львівська обл., с.Підгірне, а/д Львів-Тернопіль + Restorio","id":1182},{"link":"https://api.wog.ua/fuel_stations/1184","city":"Кременчук","coordinates":{"longitude":33.408746,"latitude":49.1085123},"name":"м. Кременчуг, вул. Київська, 66Б","id":1184},{"link":"https://api.wog.ua/fuel_stations/1185","city":"Кременчук","coordinates":{"longitude":33.4458785,"latitude":49.0675876},"name":"м.Кременчуг, р-н уч. №16, вул. Ярмаркова, 7к","id":1185},{"link":"https://api.wog.ua/fuel_stations/1186","city":"Кременчук","coordinates":{"longitude":33.420872,"latitude":49.075211},"name":"м.Кременчуг, вул. 60-річчя Жовтня, 7-б","id":1186},{"link":"https://api.wog.ua/fuel_stations/1187","city":"Дніпро","coordinates":{"longitude":35.076348,"latitude":48.450023},"name":"м.Дніпро, Набережна Перемоги, 5","id":1187},{"link":"https://api.wog.ua/fuel_stations/1188","city":"Житомир","coordinates":{"longitude":28.63286,"latitude":50.245605},"name":"м.Житомир, вул. Чуднівська, 104","id":1188},{"link":"https://api.wog.ua/fuel_stations/1189","city":"Київ","coordinates":{"longitude":30.459087,"latitude":50.42477},"name":"м.Київ, вул.Севастопольська площа, 5","id":1189},{"link":"https://api.wog.ua/fuel_stations/1190","city":"Київ","coordinates":{"longitude":30.364072,"latitude":50.499601},"name":"м.Київ, вул. Берковецька, 6","id":1190},{"link":"https://api.wog.ua/fuel_stations/1191","coordinates":{"longitude":36.024332,"latitude":28.520283},"name":"*** WOG 2 ***","id":1191},{"link":"https://api.wog.ua/fuel_stations/1192","city":"Іване-Пусте","coordinates":{"longitude":26.164845,"latitude":48.639885},"name":"Борщівський р-н, с. Іване Пусте, вул.Центральна ,1а","id":1192},{"link":"https://api.wog.ua/fuel_stations/1193","city":"Підгайці","coordinates":{"longitude":25.119292,"latitude":49.287263},"name":"Підгаєцькийр-н,с.СтареМісто,вул.Бережанська,98","id":1193},{"link":"https://api.wog.ua/fuel_stations/1194","city":"Івачів Долішній","coordinates":{"longitude":25.541977,"latitude":49.652097},"name":"Тернопільська обл., Тернопільський р., с.Івачiв Долiшнiй, АЗС, автодорога  Тернопіль-Броди 12км+940м","id":1194},{"link":"https://api.wog.ua/fuel_stations/1195","city":"Костопіль","coordinates":{"longitude":26.485077,"latitude":50.871659},"name":"Рівненська обл., Костопільський р-н, с/рада Малолюбашанська, автодорога Городище-Рівне-Старокостянтинів 121 км+500м. (З 1.08.13р.закрита на тиждень)","id":1195},{"link":"https://api.wog.ua/fuel_stations/1196","city":"Береги","coordinates":{"longitude":25.581101,"latitude":50.508609},"name":"Рівненська обл., Млинівський р., сщ  Млинiв, вул.  В. Поліщука за №  60","id":1196},{"link":"https://api.wog.ua/fuel_stations/1197","city":"Страбичово","coordinates":{"longitude":22.519855,"latitude":48.387151},"name":"Мукачевський р-н, с. Страбічово, вул. Центральна, 407","id":1197},{"link":"https://api.wog.ua/fuel_stations/1198","city":"Білогір'я","coordinates":{"longitude":26.42884,"latitude":49.999656},"name":"Хмельницька обл., Білогірський р., смт Бiлогiр'я,  вул. Шевченка ( вул. Леніна)  78 Б","id":1198},{"link":"https://api.wog.ua/fuel_stations/1199","city":"Косонь","coordinates":{"longitude":22.455415,"latitude":48.256435},"name":"Берегівський р-н, с. Косино, вул. Бочкая, 112","id":1199},{"link":"https://api.wog.ua/fuel_stations/1200","city":"Горохів","coordinates":{"longitude":24.744446,"latitude":50.492807},"name":"м.Горохів,вул Львівська,42","id":1200},{"link":"https://api.wog.ua/fuel_stations/1201","city":"Затурці","coordinates":{"longitude":24.863568,"latitude":50.77921},"name":"Локачинський р-н,с.Затурці, вул. Липинського, 4","id":1201},{"link":"https://api.wog.ua/fuel_stations/1202","city":"Мала Добронь","coordinates":{"longitude":22.346941,"latitude":48.429496},"name":"Закарпатська обл., Ужгородський р-н., с. Мала Добронь, вул. Головна, 2 А.","id":1202}]}}